Time,header.seq,header.stamp.secs,header.stamp.nsecs,header.frame_id,pose.position.x,pose.position.y,pose.position.z,pose.orientation.x,pose.orientation.y,pose.orientation.z,pose.orientation.w
1724368067.5872772,0,1724368067,587102361,world,0.15997982025146484,0.8619664907455444,0.004797221161425114,-0.02391788177192211,0.001266729086637497,0.01356506533920765,0.9996211528778076
1724368067.5973082,1,1724368067,597158410,world,0.15994469821453094,0.8620291352272034,0.004689299501478672,-0.021797465160489082,0.0013361460296437144,0.013000182807445526,0.9996770024299622
1724368067.5973148,2,1724368067,597168624,world,0.15998421609401703,0.8619643449783325,0.004792516119778156,-0.02401881106197834,0.0013008309761062264,0.013559017330408096,0.9996187090873718
1724368067.6073,3,1724368067,607153547,world,0.15996791422367096,0.8619600534439087,0.004781914409250021,-0.024259423837065697,0.0012910990044474602,0.01372008491307497,0.9996107816696167
1724368067.6173747,4,1724368067,617236997,world,0.15998196601867676,0.8619647026062012,0.004797979723662138,-0.023971550166606903,0.0012642558431252837,0.013546762987971306,0.9996200799942017
1724368067.6273026,5,1724368067,627156952,world,0.15997923910617828,0.8619635701179504,0.004795674234628677,-0.024005640298128128,0.001294740941375494,0.013600142672657967,0.9996185302734375
1724368067.6372724,6,1724368067,637150334,world,0.1599707454442978,0.8619620203971863,0.004777221009135246,-0.024314414709806442,0.0013105828547850251,0.013740230351686478,0.9996090531349182
1724368067.6473145,7,1724368067,647149788,world,0.1599755585193634,0.8619662523269653,0.0047974050976336,-0.023991089314222336,0.0012033816892653704,0.01357839535921812,0.9996193051338196
1724368067.6573212,8,1724368067,657158820,world,0.15998315811157227,0.8619626760482788,0.0048028863966465,-0.0239703431725502,0.0012623973889276385,0.013545656576752663,0.9996201395988464
1724368067.6573339,9,1724368067,657171501,world,0.1599845141172409,0.8619649410247803,0.004798567853868008,-0.02394253760576248,0.001186333131045103,0.013579776510596275,0.9996204972267151
1724368067.6672912,10,1724368067,667146763,world,0.1599748134613037,0.8619602918624878,0.004783864598721266,-0.02424648404121399,0.0012610956327989697,0.01367432065308094,0.9996116757392883
1724368067.6772878,11,1724368067,677121642,world,0.15993598103523254,0.8620262145996094,0.004698020871728659,-0.0217838604003191,0.0013589203590527177,0.013031002134084702,0.9996769428253174
1724368067.6872756,12,1724368067,687116500,world,0.15997259318828583,0.8619617819786072,0.004785331431776285,-0.024307014420628548,0.0013441877672448754,0.013695397414267063,0.9996098279953003
1724368067.6972854,13,1724368067,697155990,world,0.15998557209968567,0.8619670271873474,0.004794892389327288,-0.02396417036652565,0.0013605672866106033,0.013579320162534714,0.999619722366333
1724368067.6972947,14,1724368067,697168758,world,0.1599850058555603,0.8619626760482788,0.004803834483027458,-0.024012897163629532,0.0013479149201884866,0.013571434654295444,0.999618649482727
1724368067.7072527,15,1724368067,707120168,world,0.15998013317584991,0.8619627952575684,0.004796320106834173,-0.02381129562854767,0.0012905512703582644,0.01351564284414053,0.9996243715286255
1724368067.7173762,16,1724368067,717220514,world,0.15994781255722046,0.8620315194129944,0.004694413859397173,-0.021680166944861412,0.0013276226818561554,0.013073451817035675,0.9996786117553711
1724368067.7272675,17,1724368067,727095401,world,0.15994757413864136,0.8620262145996094,0.004697271157056093,-0.021675508469343185,0.0014245162019506097,0.01306629553437233,0.9996787309646606
1724368067.7372458,18,1724368067,737093968,world,0.15996766090393066,0.8619608879089355,0.0047821844927966595,-0.02438507042825222,0.0012732745381072164,0.013709702529013157,0.9996078610420227
1724368067.7473187,19,1724368067,747145115,world,0.15999555587768555,0.861961841583252,0.0047883703373372555,-0.023788122460246086,0.0011896383948624134,0.013594002462923527,0.9996239542961121
1724368067.7473416,20,1724368067,747153903,world,0.15998515486717224,0.8619597554206848,0.004792974796146154,-0.023945825174450874,0.0012700626393780112,0.013576062396168709,0.9996203184127808
1724368067.7572982,21,1724368067,757152371,world,0.15994063019752502,0.8620287775993347,0.004701192490756512,-0.021804237738251686,0.0013333314564079046,0.01299377717077732,0.9996770024299622
1724368067.767289,22,1724368067,767145490,world,0.15998154878616333,0.8619611263275146,0.00479121832177043,-0.024055086076259613,0.0011624401668086648,0.013566088862717152,0.9996179938316345
1724368067.7772698,23,1724368067,777146362,world,0.15998278558254242,0.8619620203971863,0.004792627412825823,-0.024005161598324776,0.0012756272917613387,0.013550708070397377,0.99961918592453
1724368067.7873108,24,1724368067,787149639,world,0.15993890166282654,0.8620292544364929,0.004692469257861376,-0.021755198016762733,0.001480482635088265,0.013051828369498253,0.9996770620346069
1724368067.7972977,25,1724368067,797144658,world,0.15998101234436035,0.8619608879089355,0.00479171285405755,-0.02406647987663746,0.0013293775264173746,0.01355576328933239,0.9996175765991211
1724368067.7973075,26,1724368067,797154092,world,0.1599806249141693,0.8619621992111206,0.00479213846847415,-0.023899085819721222,0.0012790660839527845,0.013546173460781574,0.9996218085289001
1724368067.8073013,27,1724368067,807148395,world,0.1599847674369812,0.8619540333747864,0.004768922459334135,-0.024103935807943344,0.0012889092322438955,0.01377376914024353,0.9996137619018555
1724368067.8173637,28,1724368067,817218224,world,0.15994538366794586,0.8620253801345825,0.004696682095527649,-0.021679073572158813,0.0013412073021754622,0.013005341403186321,0.9996795058250427
1724368067.8273103,29,1724368067,827157946,world,0.1600177139043808,0.8619551658630371,0.004670008551329374,-0.021692967042326927,0.0023236656561493874,0.012291306629776955,0.9996864795684814
1724368067.8372636,30,1724368067,837142172,world,0.15998119115829468,0.8619638085365295,0.004788937047123909,-0.024095382541418076,0.0013580326922237873,0.013582233339548111,0.9996165633201599
1724368067.8472817,31,1724368067,847141290,world,0.15993665158748627,0.8620253801345825,0.004687251523137093,-0.021677033975720406,0.0014586717588827014,0.012952296063303947,0.9996800422668457
1724368067.8473074,32,1724368067,847150062,world,0.15994615852832794,0.8620280027389526,0.004693978000432253,-0.02183878980576992,0.001418973202817142,0.013058465905487537,0.9996752142906189
1724368067.857317,33,1724368067,857159485,world,0.15998227894306183,0.8619606494903564,0.004792679101228714,-0.024020442739129066,0.0012847709003835917,0.01356443576514721,0.999618649482727
1724368067.8673594,34,1724368067,867226582,world,0.15998505055904388,0.8619638681411743,0.004792371299117804,-0.024036411195993423,0.0012185286032035947,0.013562588952481747,0.9996183514595032
1724368067.8773258,35,1724368067,877163535,world,0.15998747944831848,0.8619680404663086,0.0047910562716424465,-0.024013124406337738,0.001337277120910585,0.013567889109253883,0.9996187686920166
1724368067.8873243,36,1724368067,887159087,world,0.16006839275360107,0.8618884086608887,0.004773498047143221,-0.02385430410504341,0.0021375122014433146,0.012784133665263653,0.9996314644813538
1724368067.8972774,37,1724368067,897147544,world,0.15998083353042603,0.861961305141449,0.004792229272425175,-0.02394263818860054,0.001348982797935605,0.013531863689422607,0.9996209144592285
1724368067.8972871,38,1724368067,897158360,world,0.15998612344264984,0.8619656562805176,0.004800097085535526,-0.02401665970683098,0.0011364058591425419,0.013581561855971813,0.9996187686920166
1724368067.907315,39,1724368067,907162819,world,0.1599835902452469,0.8619619011878967,0.004799371585249901,-0.024021374061703682,0.0011683459160849452,0.013503781519830227,0.9996196031570435
1724368067.9173825,40,1724368067,917219199,world,0.1599828600883484,0.8619630932807922,0.004802186507731676,-0.023949669674038887,0.0012308681616559625,0.013592825271189213,0.9996200799942017
1724368067.9272895,41,1724368067,927148184,world,0.15998174250125885,0.8619638681411743,0.004797264933586121,-0.023970266804099083,0.0012643211521208286,0.013551637530326843,0.9996200799942017
1724368067.9373024,42,1724368067,937150099,world,0.1599380224943161,0.8620281219482422,0.004702710546553135,-0.0217396542429924,0.0013895559823140502,0.013086352497339249,0.9996771216392517
1724368067.9472997,43,1724368067,947147295,world,0.15997828543186188,0.8619586825370789,0.0047767795622348785,-0.024190422147512436,0.0013620973331853747,0.013750201091170311,0.9996118545532227
1724368067.9473093,44,1724368067,947160857,world,0.15998893976211548,0.861962080001831,0.004799255635589361,-0.024000924080610275,0.001378447632305324,0.013469201512634754,0.999620258808136
1724368067.9573114,45,1724368067,957173897,world,0.1599830538034439,0.8619641065597534,0.004799595568329096,-0.024052103981375694,0.001392349018715322,0.013591736555099487,0.999617338180542
1724368067.9673495,46,1724368067,967212973,world,0.1599717140197754,0.8619611263275146,0.004798000678420067,-0.024033112451434135,0.0012592589482665062,0.013598369434475899,0.9996179342269897
1724368067.977297,47,1724368067,977149250,world,0.15998661518096924,0.8619605898857117,0.004801213275641203,-0.023902324959635735,0.0012955941492691636,0.01352093368768692,0.9996220469474792
1724368067.987294,48,1724368067,987156058,world,0.15998920798301697,0.8619624972343445,0.004799078684300184,-0.024015435948967934,0.0012640946079045534,0.01355673372745514,0.9996188879013062
1724368067.9972937,49,1724368067,997141226,world,0.15998202562332153,0.8619604110717773,0.004798565525561571,-0.023937761783599854,0.0011467946460470557,0.0135690588504076,0.9996207356452942
1724368067.9973037,50,1724368067,997150601,world,0.15998265147209167,0.8619648814201355,0.004801898263394833,-0.02410333789885044,0.0012169257970526814,0.013553480617702007,0.9996169209480286
1724368068.0073082,51,1724368068,7157471,world,0.159987211227417,0.8619657158851624,0.004791365936398506,-0.023998312652111053,0.0011954819783568382,0.013587692752480507,0.9996190071105957
1724368068.0172868,52,1724368068,17125711,world,0.15997886657714844,0.8619645833969116,0.004790398757904768,-0.02394406497478485,0.0012389507610350847,0.013592164032161236,0.9996201992034912
1724368068.0273228,53,1724368068,27152974,world,0.15997785329818726,0.8619625568389893,0.004799875430762768,-0.023917116224765778,0.0013246254529803991,0.013531452976167202,0.9996215105056763
1724368068.0372763,54,1724368068,37135554,world,0.15998351573944092,0.8619665503501892,0.004794067237526178,-0.023933297023177147,0.0012172103160992265,0.013545632362365723,0.9996210932731628
1724368068.0472817,55,1724368068,47147121,world,0.15994346141815186,0.8620290756225586,0.004694280214607716,-0.02182317152619362,0.0013823469635099173,0.013022520579397678,0.9996761083602905
1724368068.0473316,56,1724368068,47155914,world,0.15997515618801117,0.8619688749313354,0.004799251444637775,-0.024012228474020958,0.0012928243959322572,0.013523324392735958,0.9996194243431091
1724368068.0573208,57,1724368068,57158862,world,0.15993733704090118,0.8620316386222839,0.004696851596236229,-0.02169780433177948,0.0013767015188932419,0.012960793450474739,0.999679684638977
1724368068.0672975,58,1724368068,67155605,world,0.15998469293117523,0.8619654774665833,0.004798728507012129,-0.023948032408952713,0.0013826630311086774,0.013506732881069183,0.9996210336685181
1724368068.0772803,59,1724368068,77150106,world,0.15994739532470703,0.8620273470878601,0.004693023860454559,-0.0217336006462574,0.0014013947220519185,0.013002541847527027,0.9996782541275024
1724368068.0873022,60,1724368068,87192811,world,0.15998096764087677,0.8619622588157654,0.004792962688952684,-0.023928886279463768,0.0013075186870992184,0.013572897762060165,0.9996207356452942
1724368068.097293,61,1724368068,97142472,world,0.15994565188884735,0.8620277643203735,0.004702015779912472,-0.021728040650486946,0.0013595864875242114,0.013000186532735825,0.9996784925460815
1724368068.0972974,62,1724368068,97151499,world,0.15997615456581116,0.8619609475135803,0.004780096933245659,-0.02432848885655403,0.001218050834722817,0.01369729544967413,0.9996094703674316
1724368068.1073039,63,1724368068,107151996,world,0.15994203090667725,0.8620239496231079,0.004702193662524223,-0.021865926682949066,0.001448413240723312,0.013077571988105774,0.999674379825592
1724368068.1173196,64,1724368068,117157785,world,0.15994156897068024,0.8620263934135437,0.004704817198216915,-0.021756084635853767,0.001337886438705027,0.01299531850963831,0.9996780157089233
1724368068.127252,65,1724368068,127102282,world,0.15998032689094543,0.8619616031646729,0.0048017362132668495,-0.024026161059737206,0.001293534180149436,0.013501191511750221,0.9996194243431091
1724368068.1373246,66,1724368068,137154622,world,0.15998153388500214,0.8619639873504639,0.004793923813849688,-0.023960497230291367,0.0013395491987466812,0.013503480702638626,0.9996209144592285
1724368068.147294,67,1724368068,147150845,world,0.1599729359149933,0.8619598150253296,0.004783394746482372,-0.024302128702402115,0.0012347463052719831,0.013717937283217907,0.9996098279953003
1724368068.147315,68,1724368068,147159734,world,0.159980908036232,0.861962616443634,0.004795888438820839,-0.023991577327251434,0.0013590985909104347,0.01355880405753851,0.9996193051338196
1724368068.157405,69,1724368068,157213476,world,0.15998773276805878,0.8619615435600281,0.0047906627878546715,-0.02400178089737892,0.0012344088172540069,0.013549727387726307,0.9996194243431091
1724368068.167304,70,1724368068,167151472,world,0.15998688340187073,0.8619611859321594,0.004790264181792736,-0.02399412728846073,0.0012199272168800235,0.013582700863480568,0.9996191263198853
1724368068.1772687,71,1724368068,177123408,world,0.1599387377500534,0.8620219230651855,0.004692564718425274,-0.02176911197602749,0.0013348952634260058,0.0130204688757658,0.9996774196624756
1724368068.18728,72,1724368068,187130651,world,0.15994274616241455,0.8620297312736511,0.004702660720795393,-0.02178816869854927,0.001306178281083703,0.013063417747616768,0.9996764063835144
1724368068.1972625,73,1724368068,197115980,world,0.15993231534957886,0.8620272874832153,0.004681435879319906,-0.021996302530169487,0.0013676142552867532,0.013156102038919926,0.9996705651283264
1724368068.197267,74,1724368068,197125496,world,0.1599482297897339,0.8620293736457825,0.00469352537766099,-0.021794140338897705,0.001302641350775957,0.013029278255999088,0.9996767640113831
1724368068.2073128,75,1724368068,207157475,world,0.1599339246749878,0.8620225191116333,0.004689041990786791,-0.0217601265758276,0.0014045735588297248,0.013023012317717075,0.9996774792671204
1724368068.2173057,76,1724368068,217128091,world,0.15998616814613342,0.8619599342346191,0.004789768718183041,-0.024001579731702805,0.0014179444406181574,0.013621557503938675,0.9996181726455688
1724368068.2272906,77,1724368068,227138599,world,0.15994402766227722,0.8620296716690063,0.004693338181823492,-0.021594736725091934,0.0014639063738286495,0.013006515800952911,0.9996811747550964
1724368068.2372973,78,1724368068,237181259,world,0.15994536876678467,0.862031877040863,0.0046911523677408695,-0.02175053209066391,0.0013130170991644263,0.013055536895990372,0.999677300453186
1724368068.2472866,79,1724368068,247145381,world,0.15998128056526184,0.8619648218154907,0.004799177870154381,-0.023883817717432976,0.0012445965548977256,0.013590999878942966,0.9996216893196106
1724368068.2472916,80,1724368068,247156356,world,0.15998338162899017,0.8619624972343445,0.004793941508978605,-0.023946082219481468,0.001286855316720903,0.01356033980846405,0.9996205568313599
1724368068.2573211,81,1724368068,257157021,world,0.15994444489479065,0.8620208501815796,0.0046899025328457355,-0.021478500217199326,0.0012791857589036226,0.013030017726123333,0.9996835589408875
1724368068.2673185,82,1724368068,267170047,world,0.15997247397899628,0.8619576692581177,0.004776401910930872,-0.02435786835849285,0.0012963353656232357,0.013709576800465584,0.9996085166931152
1724368068.2772918,83,1724368068,277153303,world,0.15997864305973053,0.8619533777236938,0.0047806864604353905,-0.024339091032743454,0.0012111607939004898,0.013729098252952099,0.9996087551116943
1724368068.287262,84,1724368068,287115985,world,0.1599380373954773,0.8620269894599915,0.004687577020376921,-0.02176792547106743,0.0013019561301916838,0.013019071891903877,0.9996774196624756
1724368068.2973201,85,1724368068,297153981,world,0.15998612344264984,0.8619635105133057,0.004795356187969446,-0.023998940363526344,0.0012884048046544194,0.013593722134828568,0.9996187686920166
1724368068.2973306,86,1724368068,297167484,world,0.15997637808322906,0.8619621992111206,0.004792654886841774,-0.023944996297359467,0.001203041523694992,0.013551137410104275,0.9996207356452942
1724368068.3073509,87,1724368068,307189653,world,0.1599777638912201,0.8619602918624878,0.0047963582910597324,-0.0239929910749197,0.0012728851288557053,0.013565979897975922,0.9996193647384644
1724368068.3173423,88,1724368068,317163739,world,0.15997910499572754,0.8619613647460938,0.0047931792214512825,-0.023883186280727386,0.00127161864656955,0.013540985994040966,0.9996223449707031
1724368068.32727,89,1724368068,327143249,world,0.15998370945453644,0.861962616443634,0.004797543399035931,-0.023827508091926575,0.001318848691880703,0.013522138819098473,0.9996238350868225
1724368068.3372803,90,1724368068,337141768,world,0.15997552871704102,0.8619609475135803,0.004792068153619766,-0.02395297773182392,0.0013060435885563493,0.013573498465120792,0.9996201395988464
1724368068.3472269,91,1724368068,347079509,world,0.15998223423957825,0.8619613647460938,0.0047934390604496,-0.024034185335040092,0.0011288563255220652,0.013576267287135124,0.999618411064148
1724368068.347232,92,1724368068,347089538,world,0.1599864810705185,0.8619596362113953,0.004802791401743889,-0.023894067853689194,0.0012817716924473643,0.013494866900146008,0.9996227025985718
1724368068.3572967,93,1724368068,357150426,world,0.15997061133384705,0.8619551658630371,0.0047862716019153595,-0.0242973230779171,0.0012239792849868536,0.013692011125385761,0.9996103048324585
1724368068.3672369,94,1724368068,367103392,world,0.1599821150302887,0.8619606494903564,0.004797315690666437,-0.023938195779919624,0.0012831417843699455,0.013608398847281933,0.9996200799942017
1724368068.3772113,95,1724368068,377078993,world,0.1599808931350708,0.8619570732116699,0.004791895858943462,-0.02403346262872219,0.0012565029319375753,0.013487935066223145,0.9996194243431091
1724368068.3872936,96,1724368068,387149778,world,0.15998291969299316,0.8619635701179504,0.004797091241925955,-0.02404501661658287,0.0012557709123939276,0.013638271950185299,0.9996171593666077
1724368068.397285,97,1724368068,397128130,world,0.15997977554798126,0.8619600534439087,0.004796107765287161,-0.023962663486599922,0.0012608107645064592,0.013526001945137978,0.9996206164360046
1724368068.3972945,98,1724368068,397139762,world,0.15997670590877533,0.8619622588157654,0.00479632243514061,-0.023968171328306198,0.0012700121151283383,0.01354918722063303,0.9996201992034912
1724368068.4073088,99,1724368068,407146228,world,0.15997615456581116,0.8619605302810669,0.004792606458067894,-0.0239329282194376,0.001275775721296668,0.013586544431746006,0.9996204972267151
1724368068.417365,100,1724368068,417217516,world,0.15998148918151855,0.8619605302810669,0.00479710241779685,-0.023985445499420166,0.001200333354063332,0.0136066023260355,0.9996190667152405
1724368068.4273176,101,1724368068,427154072,world,0.15993329882621765,0.8620244860649109,0.004700304474681616,-0.021783893927931786,0.0013835798017680645,0.01299998164176941,0.999677300453186
1724368068.437296,102,1724368068,437144036,world,0.159977987408638,0.8619610667228699,0.004798232112079859,-0.024067461490631104,0.001247164560481906,0.013567767105996609,0.9996175765991211
1724368068.447243,103,1724368068,447125991,world,0.15997788310050964,0.861966073513031,0.004796718712896109,-0.0241243839263916,0.0012603765353560448,0.013578120619058609,0.9996159672737122
1724368068.4472473,104,1724368068,447135269,world,0.1599408984184265,0.8620271682739258,0.004702021833509207,-0.021753355860710144,0.001425295602530241,0.013034171424806118,0.9996774196624756
1724368068.4572554,105,1724368068,457123000,world,0.16005922853946686,0.8618889451026917,0.004764283541589975,-0.023665882647037506,0.0022123996168375015,0.012873416766524315,0.9996346235275269
1724368068.4673336,106,1724368068,467212436,world,0.15998318791389465,0.8619598150253296,0.0047959559597074986,-0.023963386192917824,0.0013240008847787976,0.013593134470283985,0.9996195435523987
1724368068.4772825,107,1724368068,477127391,world,0.15997028350830078,0.8619590997695923,0.004783384036272764,-0.02420971170067787,0.0012670408468693495,0.013701402582228184,0.9996122121810913
1724368068.4873133,108,1724368068,487152484,world,0.15998056530952454,0.8619664907455444,0.0047989203594625,-0.02399212121963501,0.0013035550946369767,0.013544958084821701,0.9996196031570435
1724368068.4973507,109,1724368068,497160321,world,0.15998101234436035,0.8619598150253296,0.004802050068974495,-0.023957008495926857,0.0012631075223907828,0.013561027124524117,0.999620258808136
1724368068.4973552,110,1724368068,497170173,world,0.15996985137462616,0.8619590997695923,0.004780319985002279,-0.024354681372642517,0.0013400550233200192,0.01365664228796959,0.9996091723442078
1724368068.5072916,111,1724368068,507151242,world,0.15997886657714844,0.8619636297225952,0.0047985464334487915,-0.02398456633090973,0.0013535817852243781,0.01354316808283329,0.999619722366333
1724368068.5173988,112,1724368068,517237250,world,0.15998207032680511,0.8619590997695923,0.004794872831553221,-0.023995807394385338,0.0013116783229634166,0.013554303906857967,0.9996193647384644
1724368068.527253,113,1724368068,527145507,world,0.15998655557632446,0.8619658946990967,0.004795880056917667,-0.023917999118566513,0.0013278551632538438,0.01352931372821331,0.9996215105056763
1724368068.5372903,114,1724368068,537153390,world,0.15993821620941162,0.8620256781578064,0.0047054896131157875,-0.021694622933864594,0.0013376318383961916,0.013023508712649345,0.999678909778595
1724368068.547293,115,1724368068,547146271,world,0.159984290599823,0.8619616627693176,0.004792096558958292,-0.023870065808296204,0.001279299845919013,0.013576907105743885,0.999622106552124
1724368068.5473015,116,1724368068,547162090,world,0.1599782556295395,0.8619551658630371,0.004779455251991749,-0.02431515045464039,0.0013584974221885204,0.01375203114002943,0.9996088743209839
1724368068.5573297,117,1724368068,557160652,world,0.15994513034820557,0.8620291948318481,0.004699980840086937,-0.021797699853777885,0.0013813130790367723,0.013027793727815151,0.9996766448020935
1724368068.5673156,118,1724368068,567164578,world,0.1599419116973877,0.8620293736457825,0.004705464467406273,-0.02184700220823288,0.0012930975062772632,0.013005492277443409,0.9996759295463562
1724368068.5773537,119,1724368068,577181619,world,0.15993356704711914,0.8620286583900452,0.004688924178481102,-0.02176726423203945,0.0013885947410017252,0.013028972782194614,0.9996771812438965
1724368068.587265,120,1724368068,587113114,world,0.16006359457969666,0.8618859648704529,0.0047722733579576015,-0.023751134052872658,0.002191460458561778,0.012866118922829628,0.9996327757835388
1724368068.5972428,121,1724368068,597099554,world,0.15994423627853394,0.8620285987854004,0.0046918136067688465,-0.02180836722254753,0.0013331157388165593,0.0130262840539217,0.9996764063835144
1724368068.5972471,122,1724368068,597109221,world,0.15998400747776031,0.861964225769043,0.004798768553882837,-0.02402358502149582,0.0012979665771126747,0.013529534451663494,0.9996190667152405
1724368068.6072633,123,1724368068,607134653,world,0.15994614362716675,0.8620246648788452,0.0046952348202466965,-0.021760161966085434,0.0014077082742005587,0.013037590309977531,0.9996772408485413
1724368068.6172752,124,1724368068,617144063,world,0.15997199714183807,0.8619571328163147,0.004783876705914736,-0.02439429983496666,0.0012593315914273262,0.013693703338503838,0.9996078610420227
1724368068.6272538,125,1724368068,627111367,world,0.15997692942619324,0.8619598746299744,0.00479693291708827,-0.023931466042995453,0.0013054149458184838,0.013472095131874084,0.9996219873428345
1724368068.6372986,126,1724368068,637184168,world,0.15994668006896973,0.8620273470878601,0.004696920048445463,-0.021720128133893013,0.0014492364134639502,0.013032515533268452,0.9996780753135681
1724368068.6373038,127,1724368068,637197360,world,0.15993502736091614,0.8620277643203735,0.004676190670579672,-0.022176768630743027,0.0014608734054490924,0.013131817802786827,0.9996667504310608
1724368068.647299,128,1724368068,647145346,world,0.15998713672161102,0.8619553446769714,0.004786370787769556,-0.023945730179548264,0.0013884806539863348,0.013640053570270538,0.9996193051338196
1724368068.657327,129,1724368068,657172119,world,0.15994030237197876,0.8620291352272034,0.0047006686218082905,-0.021798713132739067,0.0013032059650868177,0.013073290698230267,0.9996761083602905
1724368068.667238,130,1724368068,667123326,world,0.1599379926919937,0.8620269894599915,0.004699059762060642,-0.02174990251660347,0.0013290006900206208,0.013000431470572948,0.9996780157089233
1724368068.6772568,131,1724368068,677120235,world,0.15994824469089508,0.8620319366455078,0.004699016455560923,-0.021809052675962448,0.0014163453597575426,0.013028442859649658,0.9996763467788696
1724368068.6872723,132,1724368068,687134370,world,0.15994080901145935,0.8620226979255676,0.004700881894677877,-0.02158673107624054,0.0013850451214239001,0.012984629720449448,0.9996817708015442
1724368068.6972723,133,1724368068,697123823,world,0.15998047590255737,0.861966609954834,0.00479526910930872,-0.02391556277871132,0.0012253961758688092,0.013520929031074047,0.9996218085289001
1724368068.6972792,134,1724368068,697135821,world,0.15997782349586487,0.8619568347930908,0.0047840215265750885,-0.02423451468348503,0.0013129959115758538,0.013709829188883305,0.9996114373207092
1724368068.7072783,135,1724368068,707142162,world,0.15993890166282654,0.8620278239250183,0.004685421474277973,-0.022205140441656113,0.0013520960928872228,0.013223109766840935,0.9996651411056519
1724368068.717255,136,1724368068,717133321,world,0.15993209183216095,0.8620274662971497,0.004698748234659433,-0.02174181118607521,0.001189989736303687,0.013037381693720818,0.9996778964996338
1724368068.7272646,137,1724368068,727125792,world,0.15994906425476074,0.862024188041687,0.0047008139081299305,-0.021664708852767944,0.0013644646387547255,0.01300347875803709,0.9996798038482666
1724368068.7372742,138,1724368068,737120152,world,0.16005176305770874,0.8618895411491394,0.004758944269269705,-0.024104733020067215,0.0021794531494379044,0.012955236248672009,0.9996231198310852
1724368068.7472522,139,1724368068,747116867,world,0.1599384844303131,0.862023115158081,0.004686134867370129,-0.022221481427550316,0.0014134919038042426,0.01318252831697464,0.9996651411056519
1724368068.7573044,140,1724368068,757132252,world,0.1599443256855011,0.8620225787162781,0.0046965591609478,-0.02180805429816246,0.001425939379259944,0.013066643849015236,0.9996757507324219
1724368068.7573094,141,1724368068,757146311,world,0.1599484533071518,0.8620244860649109,0.004704555496573448,-0.02166946604847908,0.001337964553385973,0.013002688996493816,0.9996798038482666
1724368068.767244,142,1724368068,767107948,world,0.15999263525009155,0.8619595766067505,0.004793946631252766,-0.02381518855690956,0.0013576538767665625,0.013644043356180191,0.9996224045753479
1724368068.7772834,143,1724368068,777126725,world,0.15998348593711853,0.8619571924209595,0.004802074749022722,-0.023893889039754868,0.0011883806437253952,0.013559636659920216,0.9996218681335449
1724368068.7872648,144,1724368068,787120765,world,0.15997762978076935,0.8619576096534729,0.004800446797162294,-0.023873629048466682,0.0013370935339480639,0.013579966500401497,0.9996218681335449
1724368068.7972717,145,1724368068,797127602,world,0.15994223952293396,0.8620247840881348,0.0047010090202093124,-0.021823400631546974,0.0012884162133559585,0.013031018897891045,0.9996761679649353
1724368068.7972767,146,1724368068,797139515,world,0.1599646508693695,0.8619555234909058,0.004783589392900467,-0.02436019666492939,0.0012740670936182141,0.013681733049452305,0.9996088743209839
1724368068.8072884,147,1724368068,807109925,world,0.15999095141887665,0.8619542121887207,0.004787309095263481,-0.023853905498981476,0.0011953634675592184,0.013634235598146915,0.9996218085289001
1724368068.8172662,148,1724368068,817120645,world,0.15998238325119019,0.8619611859321594,0.004797763656824827,-0.023906271904706955,0.001291203312575817,0.013585114851593971,0.9996211528778076
1724368068.827268,149,1724368068,827135492,world,0.15993627905845642,0.8620274066925049,0.004697801079601049,-0.021604645997285843,0.0013324083993211389,0.01304677315056324,0.9996805787086487
1724368068.8373086,150,1724368068,837134098,world,0.15998394787311554,0.8619612455368042,0.004794612992554903,-0.023976881057024002,0.0012694232864305377,0.013607409782707691,0.9996191263198853
1724368068.8472998,151,1724368068,847128793,world,0.1599811464548111,0.8619621992111206,0.004793909844011068,-0.02396378293633461,0.0012486956547945738,0.013564697466790676,0.9996200203895569
1724368068.8473094,152,1724368068,847142352,world,0.1599680781364441,0.861961305141449,0.0047802613116800785,-0.024336354807019234,0.0012517714640125632,0.013702626340091228,0.999609112739563
1724368068.8572989,153,1724368068,857137465,world,0.15997764468193054,0.8619626760482788,0.004800606984645128,-0.023970047011971474,0.0012716790661215782,0.01357736811041832,0.999619722366333
1724368068.8672917,154,1724368068,867179137,world,0.1599387526512146,0.8620270490646362,0.004702414385974407,-0.021869219839572906,0.0013540353393182158,0.013081376440823078,0.999674379825592
1724368068.8773386,155,1724368068,877163652,world,0.1599815934896469,0.8619601130485535,0.004795331507921219,-0.02394055761396885,0.0013226785231381655,0.013580866158008575,0.9996203184127808
1724368068.8872614,156,1724368068,887146118,world,0.1599489152431488,0.8620266914367676,0.00469251861795783,-0.021769091486930847,0.0013763277092948556,0.013043421320617199,0.9996770620346069
1724368068.8973234,157,1724368068,897139129,world,0.1599755883216858,0.8619577884674072,0.00478383107110858,-0.02427051216363907,0.0013237417442724109,0.013761893846094608,0.9996098875999451
1724368068.897337,158,1724368068,897152397,world,0.1599838137626648,0.8619616627693176,0.004795724526047707,-0.02395494468510151,0.0013353991089388728,0.01358614582568407,0.9996198415756226
1724368068.9073052,159,1724368068,907134312,world,0.15998400747776031,0.861962080001831,0.004800568334758282,-0.024060538038611412,0.001221344107761979,0.01355601754039526,0.999617874622345
1724368068.9172854,160,1724368068,917140435,world,0.15993985533714294,0.8620256185531616,0.004701666533946991,-0.021749522536993027,0.0012488901847973466,0.01309780403971672,0.9996768832206726
1724368068.927281,161,1724368068,927139478,world,0.16005977988243103,0.8618912696838379,0.004773562308400869,-0.02376764826476574,0.0022213791962713003,0.012777035124599934,0.9996334910392761
1724368068.937253,162,1724368068,937131538,world,0.15998293459415436,0.8619574904441833,0.004791027866303921,-0.0240426454693079,0.001250943634659052,0.01356731541454792,0.9996181726455688
1724368068.9472258,163,1724368068,947109730,world,0.15999560058116913,0.8619557619094849,0.004788870923221111,-0.023814044892787933,0.0013268081238493323,0.013603107072412968,0.9996230602264404
1724368068.947231,164,1724368068,947123502,world,0.1599784791469574,0.8619624972343445,0.004800804425030947,-0.023920606821775436,0.0012262376258149743,0.01352773979306221,0.9996216893196106
1724368068.9573326,165,1724368068,957159161,world,0.15999376773834229,0.8619629740715027,0.004797231871634722,-0.023981962352991104,0.0013131446903571486,0.013587040826678276,0.9996193051338196
1724368068.9673295,166,1724368068,967211808,world,0.15998490154743195,0.8619609475135803,0.004798161797225475,-0.024061158299446106,0.0012695839395746589,0.013572298921644688,0.9996176362037659
1724368068.9773097,167,1724368068,977134076,world,0.15993908047676086,0.8620266318321228,0.004701921716332436,-0.02183915674686432,0.0013894692528992891,0.013047054409980774,0.9996753931045532
1724368068.9873233,168,1724368068,987153733,world,0.15994538366794586,0.8620274662971497,0.004698175936937332,-0.021843891590833664,0.0013561885571107268,0.013031437061727047,0.9996755719184875
1724368068.9972525,169,1724368068,997131835,world,0.1599840670824051,0.8619623184204102,0.0047999294474720955,-0.02399289794266224,0.001342967851087451,0.013631652109324932,0.9996183514595032
1724368068.997258,170,1724368068,997145317,world,0.15996819734573364,0.8619592189788818,0.004789345897734165,-0.02432597242295742,0.0012536707799881697,0.013632874935865402,0.9996103644371033
1724368069.0072796,171,1724368069,7134917,world,0.15998202562332153,0.8619619011878967,0.00479953084141016,-0.02391233667731285,0.0013357421848922968,0.013518963940441608,0.9996218681335449
1724368069.017327,172,1724368069,17154566,world,0.15998505055904388,0.8619627952575684,0.0047966185957193375,-0.02392067201435566,0.0012606835225597024,0.013463913463056087,0.9996224045753479
1724368069.027297,173,1724368069,27129354,world,0.1599901020526886,0.8619586229324341,0.004798590205609798,-0.023967541754245758,0.0012446338078007102,0.01351378858089447,0.9996206760406494
1724368069.0372849,174,1724368069,37122945,world,0.15998150408267975,0.861960768699646,0.004799530375748873,-0.02390248514711857,0.0012535062851384282,0.013517040759325027,0.9996221661567688
1724368069.0473065,175,1724368069,47134441,world,0.1599888652563095,0.8619625568389893,0.004787641577422619,-0.023856861516833305,0.0012842707801610231,0.01363579835742712,0.9996216297149658
1724368069.0473192,176,1724368069,47148482,world,0.1599300056695938,0.8620290160179138,0.004685681313276291,-0.02222013846039772,0.001350980601273477,0.013247177004814148,0.9996644854545593
1724368069.0573158,177,1724368069,57136371,world,0.15997779369354248,0.8619657754898071,0.004802967421710491,-0.023941103368997574,0.0011862508254125714,0.013583092950284481,0.9996204972267151
1724368069.0673792,178,1724368069,67232357,world,0.15993918478488922,0.8620288372039795,0.004698570352047682,-0.02175951935350895,0.0014322672504931688,0.013012988492846489,0.9996775388717651
1724368069.077303,179,1724368069,77137534,world,0.15994170308113098,0.8620293140411377,0.00470350356772542,-0.021824760362505913,0.0014154332457110286,0.013072204776108265,0.9996753334999084
1724368069.087295,180,1724368069,87110905,world,0.15994316339492798,0.8620298504829407,0.004696721211075783,-0.021852809935808182,0.0013120208168402314,0.013009460642933846,0.9996757507324219
1724368069.0973327,181,1724368069,97156797,world,0.15993283689022064,0.8620234727859497,0.0046817767433822155,-0.022100787609815598,0.0013355532428249717,0.013153206557035446,0.9996683597564697
1724368069.0973449,182,1724368069,97170387,world,0.15993723273277283,0.8620302081108093,0.0046984911896288395,-0.021662432700395584,0.0014068427262827754,0.013015334494411945,0.9996796250343323
1724368069.1073074,183,1724368069,107140564,world,0.15993939340114594,0.8620252013206482,0.004695001989603043,-0.02184418961405754,0.0013627831358462572,0.013041039928793907,0.9996753931045532
1724368069.1173003,184,1724368069,117141138,world,0.15995067358016968,0.8620295524597168,0.004690408706665039,-0.021821094676852226,0.0012694769538939,0.013093866407871246,0.9996753334999084
1724368069.1272695,185,1724368069,127115402,world,0.15997861325740814,0.8619633316993713,0.004799640737473965,-0.024006547406315804,0.0012360498076304793,0.013548600487411022,0.9996193051338196
1724368069.1373272,186,1724368069,137164817,world,0.15997931361198425,0.8619627356529236,0.0048034703359007835,-0.02392650954425335,0.0012286965502426028,0.013592878356575966,0.9996206164360046
1724368069.1473358,187,1724368069,147183004,world,0.15998727083206177,0.8619610667228699,0.004798985086381435,-0.023924827575683594,0.0013167920988053083,0.013579437509179115,0.9996207356452942
1724368069.1473455,188,1724368069,147197491,world,0.15994477272033691,0.8620319366455078,0.004699463956058025,-0.021774351596832275,0.0014254431007429957,0.012986778281629086,0.9996775984764099
1724368069.1573195,189,1724368069,157139296,world,0.1599733680486679,0.8619652986526489,0.004803081974387169,-0.02389690652489662,0.0013470577541738749,0.013535632751882076,0.9996219277381897
1724368069.167294,190,1724368069,167128440,world,0.1599750518798828,0.8619647026062012,0.004788154270499945,-0.024299468845129013,0.0012943597976118326,0.013700591400265694,0.9996100068092346
1724368069.1773214,191,1724368069,177157017,world,0.159978449344635,0.8619644045829773,0.004780348390340805,-0.024350447580218315,0.001387017429806292,0.013691604137420654,0.9996087551116943
1724368069.1873045,192,1724368069,187151616,world,0.1599404215812683,0.8620291352272034,0.0047014993615448475,-0.021664254367351532,0.001412116689607501,0.01296237949281931,0.9996803402900696
1724368069.1973345,193,1724368069,197161776,world,0.1599803864955902,0.8619647026062012,0.00480168079957366,-0.02402307465672493,0.0012631521094590425,0.013510261662304401,0.9996194243431091
1724368069.1973398,194,1724368069,197176033,world,0.15996712446212769,0.8619626760482788,0.0047904010862112045,-0.02424367144703865,0.0013617801014333963,0.01368685346096754,0.9996114373207092
1724368069.2073152,195,1724368069,207163188,world,0.15993696451187134,0.8620362281799316,0.0046996320597827435,-0.02178078331053257,0.0014311193954199553,0.013052073307335377,0.999676525592804
1724368069.2172596,196,1724368069,217110681,world,0.15993744134902954,0.8620306253433228,0.004690871108323336,-0.02169105038046837,0.0013500249478965998,0.013074307702481747,0.999678373336792
1724368069.2273033,197,1724368069,227149528,world,0.15992441773414612,0.8620271682739258,0.004688804037868977,-0.022208377718925476,0.0013984452234581113,0.01317460648715496,0.9996656179428101
1724368069.237311,198,1724368069,237156530,world,0.15997761487960815,0.8619645833969116,0.004799812566488981,-0.023921428248286247,0.0013129133731126785,0.013607137836515903,0.9996204376220703
1724368069.2472644,199,1724368069,247112541,world,0.1599416583776474,0.862026572227478,0.004694334231317043,-0.02179017663002014,0.0013029370456933975,0.01299673318862915,0.9996772408485413
1724368069.24727,200,1724368069,247126049,world,0.1599394530057907,0.8620314002037048,0.004695478826761246,-0.02174210734665394,0.0013449559919536114,0.013011704199016094,0.9996780157089233
1724368069.2572587,201,1724368069,257128690,world,0.15996630489826202,0.8619593977928162,0.004784915596246719,-0.024272285401821136,0.001189162489026785,0.013700919225811958,0.9996107816696167
1724368069.2672756,202,1724368069,267142518,world,0.15993686020374298,0.8620296120643616,0.004694711416959763,-0.021790379658341408,0.0013548869173973799,0.013043690472841263,0.9996766448020935
1724368069.277332,203,1724368069,277168470,world,0.160052090883255,0.8618873357772827,0.004768693819642067,-0.023831356316804886,0.002125630620867014,0.01282527856528759,0.9996315240859985
1724368069.2872639,204,1724368069,287136425,world,0.15997976064682007,0.8619617223739624,0.0047916145995259285,-0.02398661896586418,0.0013827921357005835,0.013562249951064587,0.9996193647384644
1724368069.2973409,205,1724368069,297160230,world,0.1599811166524887,0.8619608283042908,0.004799785558134317,-0.023866109549999237,0.0013832546537742019,0.01367789413779974,0.9996207356452942
1724368069.297353,206,1724368069,297173541,world,0.1599733531475067,0.8619616031646729,0.0047953021712601185,-0.02403177134692669,0.001389052951708436,0.013586868532001972,0.9996179938316345
1724368069.3072877,207,1724368069,307143128,world,0.15997090935707092,0.8619621992111206,0.004798609763383865,-0.023888785392045975,0.0013913523871451616,0.013547223061323166,0.9996219277381897
1724368069.317274,208,1724368069,317150473,world,0.15994048118591309,0.8620295524597168,0.004696760792285204,-0.02178022265434265,0.0014365608803927898,0.013047262094914913,0.9996765851974487
1724368069.3272953,209,1724368069,327175325,world,0.159977525472641,0.8619614839553833,0.004796205088496208,-0.023796232417225838,0.0014577038818970323,0.013580084778368473,0.9996235966682434
1724368069.3373113,210,1724368069,337114407,world,0.1599416881799698,0.862030029296875,0.00470463652163744,-0.021788399666547775,0.0013102481607347727,0.0130004258826375,0.9996772408485413
1724368069.347272,211,1724368069,347104827,world,0.15993794798851013,0.862026572227478,0.004703643266111612,-0.021820183843374252,0.0014830786967650056,0.013068106956779957,0.999675452709198
1724368069.3472805,212,1724368069,347116598,world,0.1599753499031067,0.8619584441184998,0.004800243303179741,-0.024006925523281097,0.0011712469859048724,0.013583958148956299,0.9996188282966614
1724368069.3572779,213,1724368069,357134297,world,0.15994292497634888,0.862027645111084,0.0047035519964993,-0.021842116490006447,0.0013591148890554905,0.013040661811828613,0.999675452709198
1724368069.367294,214,1724368069,367143030,world,0.1599414199590683,0.8620244264602661,0.0046996320597827435,-0.021741557866334915,0.0013705188175663352,0.013026119209825993,0.999677836894989
1724368069.3772833,215,1724368069,377132786,world,0.1599821001291275,0.8619651794433594,0.004801758099347353,-0.02405981533229351,0.0012629078701138496,0.013622522354125977,0.9996169209480286
1724368069.3872607,216,1724368069,387129895,world,0.15993455052375793,0.8620285987854004,0.004688258748501539,-0.02168866991996765,0.0013528600102290511,0.012999065220355988,0.9996793270111084
1724368069.3972702,217,1724368069,397121349,world,0.1599864363670349,0.8619663715362549,0.004801754839718342,-0.023915642872452736,0.0013302156003192067,0.013589431531727314,0.999620795249939
1724368069.3972797,218,1724368069,397133346,world,0.1599825620651245,0.8619638681411743,0.00480156484991312,-0.023928577080368996,0.001223547849804163,0.01354566402733326,0.9996212124824524
1724368069.4072847,219,1724368069,407136378,world,0.15994007885456085,0.862026572227478,0.00470181368291378,-0.02172793634235859,0.0013764866162091494,0.013024739921092987,0.9996781945228577
1724368069.4172845,220,1724368069,417129538,world,0.15997430682182312,0.8619651794433594,0.004796505905687809,-0.023992646485567093,0.0012879810528829694,0.013511327095329762,0.9996200203895569
1724368069.4273,221,1724368069,427138601,world,0.15998591482639313,0.8619636297225952,0.004792910069227219,-0.024076074361801147,0.0011952891945838928,0.0136095080524683,0.9996168613433838
1724368069.4372532,222,1724368069,437134874,world,0.15993091464042664,0.8620241284370422,0.0046835592947900295,-0.022168688476085663,0.0012201652862131596,0.013102082535624504,0.9996677041053772
1724368069.4472976,223,1724368069,447147416,world,0.15997478365898132,0.8619681000709534,0.004807062912732363,-0.023923460394144058,0.001303917495533824,0.013495947234332561,0.9996219277381897
1724368069.4473073,224,1724368069,447158640,world,0.1599331796169281,0.8620259761810303,0.0046958914026618,-0.02166418917477131,0.0014477834338322282,0.013011797331273556,0.9996796250343323
1724368069.4573138,225,1724368069,457159461,world,0.15994347631931305,0.862027108669281,0.004697608761489391,-0.021713383495807648,0.0012877824483439326,0.013080723583698273,0.999677836894989
1724368069.467267,226,1724368069,467139465,world,0.1599833369255066,0.861963152885437,0.004793703090399504,-0.023952817544341087,0.0013925175881013274,0.01348765380680561,0.9996211528778076
1724368069.4773161,227,1724368069,477156583,world,0.15993596613407135,0.8620294332504272,0.004700811114162207,-0.021719153970479965,0.0014360143104568124,0.013049455359578133,0.9996778964996338
1724368069.4872797,228,1724368069,487129869,world,0.159980908036232,0.8619617223739624,0.004795791115611792,-0.02397250384092331,0.001131429453380406,0.013591120950877666,0.9996196031570435
1724368069.4972825,229,1724368069,497140894,world,0.15994641184806824,0.8620284795761108,0.004692512098699808,-0.021775012835860252,0.0014251343673095107,0.013085126876831055,0.9996762871742249
1724368069.4972875,230,1724368069,497150981,world,0.1599816083908081,0.8619654178619385,0.004799350164830685,-0.023960748687386513,0.00116549467202276,0.01353271584957838,0.9996207356452942
1724368069.5072694,231,1724368069,507133679,world,0.15993988513946533,0.8620290756225586,0.004706335254013538,-0.021758686751127243,0.0013683349825441837,0.013097379356622696,0.9996765851974487
1724368069.517286,232,1724368069,517126204,world,0.15998303890228271,0.8619652390480042,0.004793078172951937,-0.024001803249120712,0.0013285645982250571,0.013599930331110954,0.9996185302734375
1724368069.5272799,233,1724368069,527136227,world,0.159945547580719,0.8620275259017944,0.004691622219979763,-0.02185540646314621,0.0013517867773771286,0.012985598295927048,0.9996758699417114
1724368069.5372772,234,1724368069,537122771,world,0.1599859893321991,0.8619639873504639,0.004795458633452654,-0.02393411099910736,0.0012583840871229768,0.01351191382855177,0.9996215105056763
1724368069.5472388,235,1724368069,547119116,world,0.15997189283370972,0.861961841583252,0.004781657364219427,-0.024274058640003204,0.0013266082387417555,0.013734988868236542,0.999610185623169
1724368069.5472438,236,1724368069,547128799,world,0.1599806249141693,0.861965537071228,0.0047966185957193375,-0.023930726572871208,0.001253675320185721,0.013529445976018906,0.9996213912963867
1724368069.5572908,237,1724368069,557146091,world,0.1599455326795578,0.8620318174362183,0.004699853714555502,-0.02185886539518833,0.0012930192751809955,0.013066151179373264,0.999674916267395
1724368069.5672722,238,1724368069,567108747,world,0.1599361002445221,0.8620309829711914,0.0046930499374866486,-0.021805880591273308,0.0013178758090361953,0.012976093217730522,0.9996771812438965
1724368069.5773392,239,1724368069,577155268,world,0.1599455624818802,0.8620315790176392,0.004703660029917955,-0.021755101159214973,0.0013232412748038769,0.013078914023935795,0.9996768832206726
1724368069.5872545,240,1724368069,587139878,world,0.16005927324295044,0.8618926405906677,0.004766338039189577,-0.023716505616903305,0.002179843606427312,0.012821965850889683,0.9996342062950134
1724368069.5972397,241,1724368069,597098548,world,0.15993495285511017,0.8620319962501526,0.004697938449680805,-0.02180975116789341,0.0014170707436278462,0.01307117473334074,0.9996757507324219
1724368069.5972445,242,1724368069,597108156,world,0.15997926890850067,0.8619683384895325,0.004794234875589609,-0.024011285975575447,0.001292674569413066,0.013548853807151318,0.9996190667152405
1724368069.6072717,243,1724368069,607153565,world,0.15997645258903503,0.8619590401649475,0.004776129964739084,-0.02439861185848713,0.0012176312739029527,0.01372134406119585,0.9996073842048645
1724368069.6172562,244,1724368069,617115045,world,0.15997856855392456,0.8619678616523743,0.004785620141774416,-0.024053869768977165,0.0013199633685871959,0.013576271943747997,0.9996176362037659
1724368069.6273165,245,1724368069,627158575,world,0.1599438637495041,0.8620296716690063,0.00469784764572978,-0.02170921117067337,0.0012903803726658225,0.013016645796597004,0.9996788501739502
1724368069.637267,246,1724368069,637141883,world,0.15994086861610413,0.8620275259017944,0.0047055454924702644,-0.021776001900434494,0.0013314925599843264,0.013047941029071808,0.9996768236160278
1724368069.6472607,247,1724368069,647118275,world,0.15998442471027374,0.8619682192802429,0.0048013790510594845,-0.023999463766813278,0.0012794091599062085,0.013523277826607227,0.9996197819709778
1724368069.6472707,248,1724368069,647127974,world,0.15996721386909485,0.8619654178619385,0.004784230142831802,-0.024297578260302544,0.0013567045098170638,0.013714090920984745,0.9996098279953003
1724368069.6573443,249,1724368069,657167386,world,0.1599780172109604,0.8619641661643982,0.0047886851243674755,-0.023951401934027672,0.0012752762995660305,0.013526086695492268,0.9996209144592285
1724368069.6672776,250,1724368069,667141759,world,0.15998311340808868,0.8619621992111206,0.004790001083165407,-0.02401295304298401,0.001395998988300562,0.013583549298346043,0.999618411064148
1724368069.6773279,251,1724368069,677166029,world,0.15997853875160217,0.8619633316993713,0.0048029194585978985,-0.02392951212823391,0.0012411318020895123,0.013462278991937637,0.9996222853660583
1724368069.6873133,252,1724368069,687153841,world,0.16005760431289673,0.8618947863578796,0.004775471054017544,-0.023732004687190056,0.0021456137765198946,0.012756862677633762,0.9996346831321716
1724368069.6972497,253,1724368069,697090875,world,0.1599826067686081,0.8619680404663086,0.004792370833456516,-0.023914959281682968,0.0012333488557487726,0.013535226695239544,0.9996216893196106
1724368069.6972547,254,1724368069,697102912,world,0.15997600555419922,0.861964225769043,0.004807844292372465,-0.024012470617890358,0.0012265041004866362,0.013589208945631981,0.9996185898780823
1724368069.7073295,255,1724368069,707141447,world,0.15998414158821106,0.8619599938392639,0.004784167278558016,-0.02391935884952545,0.0012531040702015162,0.013644000515341759,0.9996200799942017
1724368069.7173645,256,1724368069,717144700,world,0.15997910499572754,0.8619649410247803,0.004799348767846823,-0.024051880463957787,0.001285827369429171,0.013536076061427593,0.9996182918548584
1724368069.7272666,257,1724368069,727106267,world,0.15998196601867676,0.8619633913040161,0.004790565464645624,-0.0240173302590847,0.0012301512761041522,0.013525934889912605,0.9996193051338196
1724368069.737313,258,1724368069,737123958,world,0.1599407196044922,0.8620310425758362,0.004697743337601423,-0.02172241173684597,0.001400395412929356,0.012980882078409195,0.9996788501739502
1724368069.7473404,259,1724368069,747156743,world,0.15998227894306183,0.8619699478149414,0.004800094291567802,-0.023945489898324013,0.0012784511782228947,0.013527831062674522,0.9996209740638733
1724368069.7473495,260,1724368069,747168385,world,0.15998128056526184,0.861965537071228,0.004794626962393522,-0.023958083242177963,0.001152741489931941,0.013547484762966633,0.9996204972267151
1724368069.7673385,261,1724368069,767224268,world,0.159938246011734,0.8620303869247437,0.00469446275383234,-0.021827055141329765,0.0014516289811581373,0.013075496070086956,0.9996752142906189
1724368069.7673466,262,1724368069,767253925,world,0.15999075770378113,0.8619604110717773,0.004791891667991877,-0.023758139461278915,0.0012676147744059563,0.013573517091572285,0.9996247887611389
1724368069.7773151,263,1724368069,777140762,world,0.15998321771621704,0.8619590401649475,0.004789768718183041,-0.023960765451192856,0.0012425343738868833,0.013497218489646912,0.9996210336685181
1724368069.787291,264,1724368069,787141855,world,0.16005493700504303,0.8618903160095215,0.004766538273543119,-0.023774534463882446,0.0022345937322825193,0.01277046650648117,0.9996333122253418
1724368069.8072424,265,1724368069,807130077,world,0.1599811315536499,0.8619617819786072,0.004800792783498764,-0.023872844874858856,0.0012236416805535555,0.013533109799027443,0.9996227025985718
1724368069.8072522,266,1724368069,807144813,world,0.1599777638912201,0.8619650602340698,0.0048016696237027645,-0.0239754356443882,0.0013474405277520418,0.013564549386501312,0.9996196627616882
1724368069.807261,267,1724368069,807188601,world,0.15994054079055786,0.8620278239250183,0.00469462713226676,-0.02178599312901497,0.0014901735121384263,0.013022166676819324,0.9996767044067383
1724368069.817372,268,1724368069,817212782,world,0.1599740982055664,0.8619614839553833,0.004783921875059605,-0.024346474558115005,0.0012218873016536236,0.013668405823409557,0.9996094703674316
1724368069.8272753,269,1724368069,827112874,world,0.15997765958309174,0.8619606494903564,0.004802965559065342,-0.023965885862708092,0.001359152956865728,0.013571702875196934,0.999619722366333
1724368069.8372953,270,1724368069,837140051,world,0.15997059643268585,0.86196368932724,0.004781149793416262,-0.024382006376981735,0.0012818098766729236,0.013723247684538364,0.9996076822280884
1724368069.8473148,271,1724368069,847158876,world,0.16006118059158325,0.8618924021720886,0.004767685197293758,-0.023774709552526474,0.002186582423746586,0.012776819989085197,0.9996333718299866
1724368069.8473203,272,1724368069,847172459,world,0.159944087266922,0.8620271682739258,0.004693338647484779,-0.021686989814043045,0.0013795711565762758,0.0130448704585433,0.9996787905693054
1724368069.8573,273,1724368069,857155827,world,0.15997162461280823,0.8619702458381653,0.004801042377948761,-0.02398107759654522,0.0013333744136616588,0.01355508342385292,0.9996196627616882
1724368069.8672967,274,1724368069,867150582,world,0.15997761487960815,0.8619665503501892,0.004795997403562069,-0.023962978273630142,0.0013166950084269047,0.013582074083387852,0.999619722366333
1724368069.8772604,275,1724368069,877126448,world,0.1599419265985489,0.8620339632034302,0.004694668110460043,-0.021805917844176292,0.001305297832004726,0.012951494194567204,0.9996774792671204
1724368069.887206,276,1724368069,887072508,world,0.15996810793876648,0.8619641661643982,0.004789731465280056,-0.024271756410598755,0.0012344473507255316,0.013731935992836952,0.9996103048324585
1724368069.8973145,277,1724368069,897125566,world,0.15997642278671265,0.8619673252105713,0.004801072645932436,-0.023901721462607384,0.001317033194936812,0.013537773862481117,0.9996218085289001
1724368069.897325,278,1724368069,897143458,world,0.15993109345436096,0.8620297312736511,0.00467914342880249,-0.0220213383436203,0.001399337314069271,0.013204137794673443,0.9996693730354309
1724368069.907285,279,1724368069,907162873,world,0.15993428230285645,0.8620263338088989,0.0046806554310023785,-0.022038133814930916,0.001418995438143611,0.013179965317249298,0.9996693134307861
1724368069.9172976,280,1724368069,917152391,world,0.1599717140197754,0.8619664907455444,0.004798754584044218,-0.02390323206782341,0.0013051786227151752,0.013574518263339996,0.9996212720870972
1724368069.9272761,281,1724368069,927133979,world,0.1599472165107727,0.862028956413269,0.004696485120803118,-0.02192397601902485,0.0013411387335509062,0.012969392351806164,0.9996746182441711
1724368069.9372582,282,1724368069,937156833,world,0.1599830836057663,0.861968994140625,0.004796825814992189,-0.023896684870123863,0.0013191557954996824,0.013621771708130836,0.9996208548545837
1724368069.947298,283,1724368069,947171913,world,0.15997999906539917,0.8619635105133057,0.004799906630069017,-0.024104246869683266,0.0012188289547339082,0.013609902001917362,0.9996161460876465
1724368069.9473042,284,1724368069,947186025,world,0.15993207693099976,0.8620314002037048,0.004699956625699997,-0.02168511413037777,0.0014174446696415544,0.012968434952199459,0.9996797442436218
1724368069.957267,285,1724368069,957092562,world,0.1599852591753006,0.8619619607925415,0.004799161106348038,-0.02395794913172722,0.001384601229801774,0.013527159579098225,0.9996204972267151
1724368069.9672635,286,1724368069,967160158,world,0.15997794270515442,0.8619616031646729,0.004777895752340555,-0.024362321943044662,0.0014054732164368033,0.013731557875871658,0.9996079802513123
1724368069.9773207,287,1724368069,977142913,world,0.1599326729774475,0.8620234131813049,0.004682313650846481,-0.02208407036960125,0.0015381292905658484,0.013176001608371735,0.9996681213378906
1724368069.987488,288,1724368069,987191938,world,0.15998268127441406,0.8619616031646729,0.004798896610736847,-0.023906035348773003,0.0012966238427907228,0.013546238653361797,0.9996216893196106
1724368069.9974065,289,1724368069,997173832,world,0.15999242663383484,0.8619608283042908,0.004787306766957045,-0.023714838549494743,0.0012797726085409522,0.013597652316093445,0.9996255040168762
1724368069.997421,290,1724368069,997195980,world,0.15993943810462952,0.8620277047157288,0.004699855111539364,-0.021866263821721077,0.0013634689385071397,0.013028291054069996,0.9996750950813293
1724368070.0072975,291,1724368070,7127950,world,0.15998074412345886,0.8619669079780579,0.004803219344466925,-0.023949116468429565,0.001289669657126069,0.013541380874812603,0.9996206760406494
1724368070.017345,292,1724368070,17181701,world,0.15998618304729462,0.8619700074195862,0.004793906584382057,-0.02406059205532074,0.0012169143883511424,0.013503595255315304,0.9996185898780823
1724368070.0272996,293,1724368070,27138161,world,0.15995149314403534,0.8620307445526123,0.004703877028077841,-0.021740775555372238,0.0014357620384544134,0.013099567964673042,0.9996768236160278
1724368070.03733,294,1724368070,37160315,world,0.15998275578022003,0.8619683384895325,0.004804575815796852,-0.023859022185206413,0.0013242877321317792,0.01353436429053545,0.9996228814125061
1724368070.0473218,295,1724368070,47163339,world,0.1599792242050171,0.8619627952575684,0.004794741980731487,-0.023997601121664047,0.0012751624453812838,0.013562247157096863,0.9996192455291748
1724368070.047328,296,1724368070,47175996,world,0.1599736362695694,0.8619638681411743,0.004778718110173941,-0.02437017485499382,0.0013883481733500957,0.013659389689564705,0.9996087551116943
1724368070.0573413,297,1724368070,57164015,world,0.15994086861610413,0.8620271682739258,0.004697771277278662,-0.021847901865839958,0.001352319959551096,0.012995553202927113,0.9996759295463562
1724368070.0672824,298,1724368070,67123040,world,0.1599847376346588,0.8619654774665833,0.004796264227479696,-0.023979300633072853,0.0013515306636691093,0.013539460487663746,0.9996199607849121
1724368070.0773346,299,1724368070,77160117,world,0.15994665026664734,0.8620287775993347,0.004694624803960323,-0.021733814850449562,0.0014542076969519258,0.01305360533297062,0.9996775984764099
1724368070.0872805,300,1724368070,87162418,world,0.15993700921535492,0.8620293140411377,0.00469598826020956,-0.02176695503294468,0.0013011808041483164,0.012976003810763359,0.9996780157089233
1724368070.097265,301,1724368070,97138990,world,0.1599823534488678,0.861962080001831,0.0047976612113416195,-0.02404593676328659,0.00140582921449095,0.013599204830825329,0.9996173977851868
1724368070.0972703,302,1724368070,97151990,world,0.15997964143753052,0.8619623780250549,0.004792758729308844,-0.024047160521149635,0.0012795008951798081,0.013543522916734219,0.9996183514595032
1724368070.1073399,303,1724368070,107172334,world,0.15993423759937286,0.8620285391807556,0.004676926881074905,-0.02206508070230484,0.001431307289749384,0.01315995492041111,0.9996689558029175
1724368070.117314,304,1724368070,117151317,world,0.15994194149971008,0.8620244264602661,0.004696147982031107,-0.02174578420817852,0.0013843548949807882,0.012942705303430557,0.9996787905693054
1724368070.1273062,305,1724368070,127163171,world,0.1599365472793579,0.8620315194129944,0.004702421370893717,-0.021683894097805023,0.001460920786485076,0.0130544388666749,0.9996786117553711
1724368070.1372604,306,1724368070,137133265,world,0.159943088889122,0.8620303869247437,0.0046990192495286465,-0.021918945014476776,0.0014237530995160341,0.013038555160164833,0.9996737837791443
1724368070.1473053,307,1724368070,147161318,world,0.15997721254825592,0.8619589805603027,0.004781360272318125,-0.024296915158629417,0.0013316067634150386,0.01373984757810831,0.9996095299720764
1724368070.1572907,308,1724368070,157146044,world,0.1599690020084381,0.8619648814201355,0.004785286262631416,-0.024399299174547195,0.0013579921796917915,0.013658184558153152,0.999608039855957
1724368070.1572978,309,1724368070,157159589,world,0.15997612476348877,0.8619646430015564,0.004796748980879784,-0.023935610428452492,0.0013685161247849464,0.013574257493019104,0.9996204376220703
