Time,header.seq,header.stamp.secs,header.stamp.nsecs,header.frame_id,pose.position.x,pose.position.y,pose.position.z,pose.orientation.x,pose.orientation.y,pose.orientation.z,pose.orientation.w
1724368204.367429,2896,1724368204,367184468,world,0.16093486547470093,0.8675114512443542,0.004676713142544031,-0.01990431733429432,0.0017576244426891208,0.047797054052352905,0.9986571669578552
1724368204.3773534,2897,1724368204,377173525,world,0.16093410551548004,0.8675042390823364,0.004675850737839937,-0.020000850781798363,0.0017718905583024025,0.04784301295876503,0.9986530542373657
1724368204.3874164,2898,1724368204,387178776,world,0.16092675924301147,0.8675071597099304,0.004679449368268251,-0.019984686747193336,0.001735376543365419,0.04776934161782265,0.9986569881439209
1724368204.39744,2899,1724368204,397195143,world,0.16093337535858154,0.8675095438957214,0.004672314506024122,-0.020068684592843056,0.0016586093697696924,0.04774530604481697,0.9986566305160522
1724368204.3974729,2900,1724368204,397219194,world,0.1609296202659607,0.8675083518028259,0.004678875673562288,-0.019990719854831696,0.0016788329230621457,0.04779106378555298,0.9986559748649597
1724368204.4074028,2901,1724368204,407182303,world,0.1609264314174652,0.8675057888031006,0.004681988153606653,-0.020013203844428062,0.0017196343978866935,0.04768151044845581,0.9986606240272522
1724368204.4174688,2902,1724368204,417258277,world,0.16093291342258453,0.8675073385238647,0.0046837590634822845,-0.019791655242443085,0.0016803848557174206,0.047704067081213,0.9986640810966492
1724368204.4273965,2903,1724368204,427208611,world,0.16093507409095764,0.8675050735473633,0.0046754018403589725,-0.020031139254570007,0.0019044473301619291,0.04781947657465935,0.9986533522605896
1724368204.4373746,2904,1724368204,437144003,world,0.1609341949224472,0.8675104379653931,0.004680132493376732,-0.019904501736164093,0.0018132695695385337,0.047824662178754807,0.9986557960510254
1724368204.4473867,2905,1724368204,447182429,world,0.16092926263809204,0.867508053779602,0.0046819294802844524,-0.02001560479402542,0.0017405969556421041,0.047755300998687744,0.9986570477485657
1724368204.4474247,2906,1724368204,447208309,world,0.1609308123588562,0.8675105571746826,0.004690719302743673,-0.01999867893755436,0.0017420840449631214,0.04776608571410179,0.9986568689346313
1724368204.45755,2907,1724368204,457217847,world,0.16093218326568604,0.8675063252449036,0.004677602089941502,-0.01992162875831127,0.001711792778223753,0.0477866604924202,0.9986574649810791
1724368204.4675448,2908,1724368204,467169177,world,0.16093489527702332,0.867512047290802,0.004686862230300903,-0.020041124895215034,0.0016505875391885638,0.04779990017414093,0.9986545443534851
1724368204.4774804,2909,1724368204,477199343,world,0.16093112528324127,0.867510199546814,0.004688724409788847,-0.02004268392920494,0.001674625906161964,0.04776065796613693,0.9986563324928284
1724368204.4873831,2910,1724368204,487179247,world,0.16092810034751892,0.867512047290802,0.004682196769863367,-0.019987119361758232,0.0017855777405202389,0.04778038337826729,0.9986563324928284
1724368204.497491,2911,1724368204,497227712,world,0.16093318164348602,0.8675094246864319,0.004684277810156345,-0.01996031031012535,0.00160017772577703,0.04780113324522972,0.9986562132835388
1724368204.4975135,2912,1724368204,497255464,world,0.16093023121356964,0.8675096035003662,0.004689377266913652,-0.020068388432264328,0.001649504411034286,0.047784268856048584,0.9986547827720642
1724368204.507438,2913,1724368204,507198578,world,0.16096171736717224,0.8674383759498596,0.004778760019689798,-0.022004427388310432,0.001646749209612608,0.04817216470837593,0.9985953569412231
1724368204.5174048,2914,1724368204,517179277,world,0.16092810034751892,0.8675108551979065,0.004688923247158527,-0.01993562839925289,0.001549512380734086,0.047832638025283813,0.9986552000045776
1724368204.5274131,2915,1724368204,527181087,world,0.16093552112579346,0.867512047290802,0.004687166307121515,-0.019994476810097694,0.001717030769214034,0.04782545939087868,0.9986541271209717
1724368204.5373573,2916,1724368204,537153255,world,0.16093139350414276,0.867506742477417,0.004695315379649401,-0.01993105374276638,0.0017761873314157128,0.04778701812028885,0.9986571669578552
1724368204.5473943,2917,1724368204,547172975,world,0.1609342098236084,0.867511510848999,0.00469028577208519,-0.020001977682113647,0.001705012982711196,0.04776986315846443,0.998656690120697
1724368204.5474164,2918,1724368204,547199663,world,0.16093049943447113,0.8675074577331543,0.004686372820287943,-0.019974514842033386,0.0017206579213961959,0.04775403439998627,0.9986579418182373
1724368204.5574207,2919,1724368204,557156851,world,0.1609615534543991,0.8674391508102417,0.00478391395881772,-0.022007431834936142,0.0016392312245443463,0.04809371009469032,0.9985990524291992
1724368204.5673835,2920,1724368204,567174810,world,0.1609317511320114,0.8675045371055603,0.004686974920332432,-0.01992282085120678,0.001703751040622592,0.047768108546733856,0.9986583590507507
1724368204.577405,2921,1724368204,577146025,world,0.16094020009040833,0.8675062656402588,0.004689153283834457,-0.019858740270137787,0.001821796759031713,0.04779868200421333,0.9986580014228821
1724368204.5874295,2922,1724368204,587212572,world,0.16093119978904724,0.8675071001052856,0.00468469737097621,-0.019979747012257576,0.0017781954957172275,0.04776933789253235,0.9986570477485657
1724368204.5974364,2923,1724368204,597189535,world,0.16093426942825317,0.8675081133842468,0.004684671759605408,-0.019877048209309578,0.0017600321443751454,0.04779234156012535,0.9986579418182373
1724368204.597458,2924,1724368204,597213749,world,0.1609295904636383,0.8675006031990051,0.00467313639819622,-0.019958239048719406,0.0016944525996223092,0.04783712700009346,0.9986543655395508
1724368204.6074102,2925,1724368204,607194353,world,0.1609310805797577,0.8675112128257751,0.004680607933551073,-0.019861597567796707,0.0018641246715560555,0.047778598964214325,0.9986587762832642
1724368204.6174169,2926,1724368204,617169683,world,0.16092990338802338,0.8675065636634827,0.004678261000663042,-0.019898878410458565,0.0017048775916919112,0.047804009169340134,0.9986570477485657
1724368204.627469,2927,1724368204,627201295,world,0.1609678864479065,0.8674377202987671,0.004769039805978537,-0.022008469328284264,0.0016952125588431954,0.04815854877233505,0.9985958337783813
1724368204.6373773,2928,1724368204,637190840,world,0.16093389689922333,0.8675034046173096,0.004682858008891344,-0.020008927211165428,0.00172898278106004,0.0477927140891552,0.998655378818512
1724368204.6473243,2929,1724368204,647130323,world,0.16093787550926208,0.8675037622451782,0.00468262517824769,-0.020082343369722366,0.0018053228268399835,0.04776707664132118,0.9986550807952881
1724368204.6473408,2930,1724368204,647150786,world,0.16092714667320251,0.8675091862678528,0.004681827966123819,-0.019901923835277557,0.0017160257557407022,0.047796037048101425,0.9986573457717896
1724368204.6573784,2931,1724368204,657183926,world,0.1609327346086502,0.867504894733429,0.00468523520976305,-0.020056918263435364,0.001740753068588674,0.04782918468117714,0.9986526370048523
1724368204.6677232,2932,1724368204,667542628,world,0.16093286871910095,0.8675097227096558,0.004681205842643976,-0.019979652017354965,0.001705407863482833,0.04783887416124344,0.9986538290977478
1724368204.6773715,2933,1724368204,677180800,world,0.16093425452709198,0.8675079345703125,0.004690091125667095,-0.019997989758849144,0.0017547664465382695,0.04779500141739845,0.9986554384231567
1724368204.6873884,2934,1724368204,687181647,world,0.16093182563781738,0.867505669593811,0.004692370072007179,-0.020052794367074966,0.001661814283579588,0.04774855077266693,0.998656690120697
1724368204.6973457,2935,1724368204,697132589,world,0.1609344631433487,0.8675057291984558,0.004690895322710276,-0.019917486235499382,0.0017911321483552456,0.04783392697572708,0.9986551403999329
1724368204.6973622,2936,1724368204,697151690,world,0.1609405279159546,0.8675084710121155,0.0046874345280230045,-0.019980357959866524,0.0017642246093600988,0.04782611131668091,0.998654305934906
1724368204.7073395,2937,1724368204,707165984,world,0.1609361469745636,0.8675095438957214,0.004693602677434683,-0.020023031160235405,0.0017726460937410593,0.04773465171456337,0.998657763004303
1724368204.7172904,2938,1724368204,717145810,world,0.16092443466186523,0.8675106763839722,0.004687722306698561,-0.019922271370887756,0.0017104169819504023,0.047826144844293594,0.9986555576324463
1724368204.727356,2939,1724368204,727153348,world,0.16093184053897858,0.8675084114074707,0.004693031311035156,-0.019911954179406166,0.0017201576847583055,0.047863081097602844,0.9986540079116821
1724368204.737343,2940,1724368204,737155997,world,0.16092994809150696,0.8675063848495483,0.004693401511758566,-0.019911985844373703,0.00170356675516814,0.047766249626874924,0.9986586570739746
1724368204.747301,2941,1724368204,747129623,world,0.16092650592327118,0.8675053119659424,0.004692854825407267,-0.01990247145295143,0.0016261322889477015,0.04788072779774666,0.9986535310745239
1724368204.747313,2942,1724368204,747144657,world,0.1609286516904831,0.8675064444541931,0.00469090323895216,-0.0199141688644886,0.0017670951783657074,0.047811463475227356,0.9986563324928284
1724368204.7573428,2943,1724368204,757150211,world,0.16093504428863525,0.8675106167793274,0.004688515793532133,-0.020035143941640854,0.0017874714685603976,0.047835301607847214,0.9986526966094971
1724368204.7672718,2944,1724368204,767146507,world,0.16092418134212494,0.8675094842910767,0.004691899288445711,-0.02000216208398342,0.001728732604533434,0.04779904708266258,0.9986552000045776
1724368204.7772546,2945,1724368204,777115576,world,0.16093172132968903,0.8675071597099304,0.004700679797679186,-0.019954239949584007,0.0016905219526961446,0.047779493033885956,0.9986572265625
1724368204.7873175,2946,1724368204,787158393,world,0.16093070805072784,0.8675050139427185,0.004681851249188185,-0.019896771758794785,0.001747656031511724,0.047788847237825394,0.998657763004303
1724368204.7973197,2947,1724368204,797163987,world,0.16093343496322632,0.8675042986869812,0.0046915621496737,-0.0199887752532959,0.0017311694100499153,0.047827769070863724,0.9986540675163269
1724368204.79733,2948,1724368204,797176154,world,0.1609288454055786,0.8675083518028259,0.004689858295023441,-0.019998805597424507,0.001700464403256774,0.04784245416522026,0.9986532926559448
1724368204.8072808,2949,1724368204,807140524,world,0.1609325408935547,0.8675079941749573,0.0046900915913283825,-0.019985884428024292,0.0018224705709144473,0.047786958515644073,0.9986559152603149
1724368204.8172789,2950,1724368204,817135812,world,0.16093260049819946,0.8675071597099304,0.004687413107603788,-0.019914761185646057,0.0017949771136045456,0.04776313528418541,0.9986585378646851
1724368204.827281,2951,1724368204,827127704,world,0.1609310805797577,0.8675075769424438,0.00468476815149188,-0.0200003944337368,0.001793660456314683,0.047769851982593536,0.9986565709114075
1724368204.8375869,2952,1724368204,837248212,world,0.16092345118522644,0.8675090670585632,0.004689324647188187,-0.01992436684668064,0.0017445365665480494,0.047802943736314774,0.9986565113067627
1724368204.847641,2953,1724368204,847250586,world,0.16093485057353973,0.8675118088722229,0.00469582574442029,-0.020029105246067047,0.0017045632703229785,0.04785201698541641,0.9986521601676941
1724368204.8476741,2954,1724368204,847293865,world,0.16092556715011597,0.8675047755241394,0.004683659877628088,-0.019997214898467064,0.001741434563882649,0.0478493794798851,0.9986528754234314
1724368204.8576162,2955,1724368204,857228926,world,0.16092930734157562,0.8675061464309692,0.00468634394928813,-0.02002941630780697,0.0016337623819708824,0.047755949199199677,0.9986568689346313
1724368204.867698,2956,1724368204,867254460,world,0.16093584895133972,0.8675046563148499,0.004687252454459667,-0.01996227167546749,0.001747901551425457,0.04776107519865036,0.9986578226089478
1724368204.8776648,2957,1724368204,877217790,world,0.16092917323112488,0.8675014972686768,0.004681114573031664,-0.019994035363197327,0.0017167211044579744,0.04780605435371399,0.9986551403999329
1724368204.8876994,2958,1724368204,887264672,world,0.160933256149292,0.8675060272216797,0.004685853607952595,-0.019952604547142982,0.0017220857553184032,0.047808688133955,0.9986557960510254
1724368204.8974519,2959,1724368204,897201985,world,0.16092640161514282,0.8675040006637573,0.004686325788497925,-0.02008536458015442,0.0017617084085941315,0.04786248132586479,0.9986504912376404
1724368204.9074137,2960,1724368204,907181854,world,0.16093356907367706,0.8675078749656677,0.004682142287492752,-0.0199576485902071,0.0016721815336495638,0.04783417657017708,0.9986546039581299
1724368204.9074328,2961,1724368204,907202303,world,0.16096457839012146,0.8674352169036865,0.004770561121404171,-0.021981514990329742,0.0016539565986022353,0.04813653230667114,0.9985975623130798
1724368204.9172976,2962,1724368204,917161299,world,0.160931795835495,0.8675053119659424,0.004686019849032164,-0.019902599975466728,0.0018162224441766739,0.04779898747801781,0.9986570477485657
1724368204.9272792,2963,1724368204,927123503,world,0.16093137860298157,0.8675055503845215,0.004677974618971348,-0.01999005675315857,0.001686280476860702,0.04780161380767822,0.9986554384231567
1724368204.9373333,2964,1724368204,937161005,world,0.1609366536140442,0.8675047159194946,0.004685203544795513,-0.01990530826151371,0.0016584800323471427,0.04781379550695419,0.9986565709114075
1724368204.9472997,2965,1724368204,947128119,world,0.16093850135803223,0.8675054907798767,0.004681783262640238,-0.020043406635522842,0.0018356770742684603,0.04784628003835678,0.998651921749115
1724368204.9473102,2966,1724368204,947142239,world,0.16093477606773376,0.8675060272216797,0.004682579077780247,-0.02009320631623268,0.0017504510469734669,0.0478517971932888,0.998650848865509
1724368204.9573267,2967,1724368204,957161049,world,0.1609354317188263,0.8675040006637573,0.004683807957917452,-0.0199597105383873,0.0017223091563209891,0.04782812297344208,0.9986547231674194
1724368204.9672968,2968,1724368204,967154934,world,0.1609673798084259,0.8674348592758179,0.004778898321092129,-0.02210216410458088,0.0017098747193813324,0.048150140792131424,0.9985941052436829
1724368204.9772758,2969,1724368204,977125279,world,0.16093936562538147,0.8675033450126648,0.004681502468883991,-0.020002122968435287,0.0017074032220989466,0.04778639227151871,0.9986559152603149
1724368204.987309,2970,1724368204,987161560,world,0.16093452274799347,0.8675032258033752,0.004686523694545031,-0.02008243463933468,0.0017855098703876138,0.04777614399790764,0.9986546039581299
1724368204.9973106,2971,1724368204,997145227,world,0.1609337329864502,0.8675046563148499,0.004686728119850159,-0.02000495232641697,0.001672075828537345,0.04781857132911682,0.998654305934906
1724368204.9973164,2972,1724368204,997158900,world,0.16093246638774872,0.8675020933151245,0.004677347373217344,-0.01995750330388546,0.0016730681527405977,0.04779918119311333,0.998656153678894
1724368205.0073304,2973,1724368205,7157024,world,0.16093234717845917,0.8675037622451782,0.004689772147685289,-0.019934697076678276,0.0017521202098578215,0.0477934405207634,0.9986567497253418
1724368205.017369,2974,1724368205,17168208,world,0.16092541813850403,0.8675037026405334,0.004682104103267193,-0.019930824637413025,0.0018390986369922757,0.04770469292998314,0.9986609220504761
1724368205.0272694,2975,1724368205,27125032,world,0.16093146800994873,0.8675071001052856,0.004688852000981569,-0.019933750852942467,0.0017832284793257713,0.047772783786058426,0.9986577033996582
1724368205.0373223,2976,1724368205,37154519,world,0.16093838214874268,0.867505669593811,0.004683396313339472,-0.019878309220075607,0.0018591283587738872,0.047811657190322876,0.9986568689346313
1724368205.0473235,2977,1724368205,47148791,world,0.1609261929988861,0.8675036430358887,0.00467430055141449,-0.01990944892168045,0.0017463159747421741,0.047762393951416016,0.9986588358879089
1724368205.047335,2978,1724368205,47163434,world,0.1609300822019577,0.8675063848495483,0.004683078732341528,-0.019910838454961777,0.0019142274977639318,0.04779479280114174,0.9986569285392761
1724368205.0573463,2979,1724368205,57164148,world,0.16096331179141998,0.8674328923225403,0.004769421648234129,-0.02208401821553707,0.0016899509355425835,0.0481928288936615,0.9985925555229187
1724368205.0673022,2980,1724368205,67158666,world,0.16093042492866516,0.8675013780593872,0.0046767727471888065,-0.019994793459773064,0.0018420523265376687,0.04780517518520355,0.998654842376709
1724368205.0772648,2981,1724368205,77133873,world,0.16093166172504425,0.867504358291626,0.004681814927607775,-0.019870692864060402,0.0018438139231875539,0.04781969636678696,0.998656690120697
1724368205.0873458,2982,1724368205,87166068,world,0.1609361469745636,0.8675029277801514,0.004684112500399351,-0.019977562129497528,0.0017730792751535773,0.0477907732129097,0.9986560940742493
1724368205.0973225,2983,1724368205,97161416,world,0.1609327495098114,0.8675063848495483,0.004677860997617245,-0.019937807694077492,0.0016307745827361941,0.047829899936914444,0.9986552000045776
1724368205.1073515,2984,1724368205,107167008,world,0.1609382927417755,0.8675032258033752,0.004678227938711643,-0.019894063472747803,0.001638987334445119,0.04778158664703369,0.9986583590507507
1724368205.1073644,2985,1724368205,107182637,world,0.16093692183494568,0.867502748966217,0.00467749685049057,-0.019898949190974236,0.0017601849976927042,0.04774751514196396,0.9986596703529358
1724368205.1173215,2986,1724368205,117154897,world,0.16093522310256958,0.867506206035614,0.004677471239119768,-0.01995803229510784,0.001711140270344913,0.047781672328710556,0.9986569285392761
1724368205.12729,2987,1724368205,127128923,world,0.1609310358762741,0.8675033450126648,0.004681385587900877,-0.020033234730362892,0.0016772254602983594,0.04781537130475044,0.9986538887023926
1724368205.1373115,2988,1724368205,137161822,world,0.1609320491552353,0.8675054907798767,0.004679761826992035,-0.01991584524512291,0.0018685435643419623,0.047797173261642456,0.9986568093299866
1724368205.1473715,2989,1724368205,147171192,world,0.1609283685684204,0.8675084710121155,0.004675447940826416,-0.01993367448449135,0.001849456923082471,0.047815557569265366,0.9986556172370911
1724368205.1473813,2990,1724368205,147185032,world,0.16093416512012482,0.867501437664032,0.004685970954596996,-0.020054195076227188,0.001775858923792839,0.04784584790468216,0.9986518621444702
1724368205.1572983,2991,1724368205,157109231,world,0.16093170642852783,0.8675106167793274,0.004682143218815327,-0.020010681822896004,0.0018033726373687387,0.04781977832317352,0.9986539483070374
1724368205.1673033,2992,1724368205,167133734,world,0.16092759370803833,0.8675042390823364,0.004675024189054966,-0.019963683560490608,0.0016812928952276707,0.04781977832317352,0.9986551403999329
1724368205.1772702,2993,1724368205,177118913,world,0.16093681752681732,0.8675081133842468,0.004679566714912653,-0.01999245211482048,0.001851008622907102,0.04778558760881424,0.9986558556556702
1724368205.187261,2994,1724368205,187118974,world,0.16093653440475464,0.8675059676170349,0.0046770814806222916,-0.019933288916945457,0.0017341902712360024,0.04781297594308853,0.9986559748649597
1724368205.1973028,2995,1724368205,197151270,world,0.16093304753303528,0.8675051927566528,0.004679383244365454,-0.019948191940784454,0.0017344052903354168,0.04779376834630966,0.9986565113067627
1724368205.1973138,2996,1724368205,197161659,world,0.16093727946281433,0.8675060272216797,0.004682993050664663,-0.02003965526819229,0.0017338371835649014,0.047761593014001846,0.9986562132835388
1724368205.2073305,2997,1724368205,207166634,world,0.16092942655086517,0.8675059080123901,0.004672302398830652,-0.01988399028778076,0.001682712696492672,0.047784604132175446,0.9986583590507507
1724368205.217304,2998,1724368205,217132512,world,0.16092832386493683,0.8675065636634827,0.00468628853559494,-0.020015425980091095,0.0017666149651631713,0.04778807982802391,0.998655378818512
1724368205.2272782,2999,1724368205,227125561,world,0.1609300822019577,0.8675001859664917,0.004681019578129053,-0.019931387156248093,0.001792917842976749,0.04774985834956169,0.9986588358879089
1724368205.237274,3000,1724368205,237152333,world,0.16092973947525024,0.8675047159194946,0.004675301257520914,-0.020006444305181503,0.0018751363968476653,0.04783143848180771,0.9986532926559448
1724368205.2472708,3001,1724368205,247147869,world,0.1609271764755249,0.8675057291984558,0.0046780607663095,-0.019999032840132713,0.0017519838875159621,0.047808971256017685,0.9986547231674194
1724368205.247276,3002,1724368205,247159260,world,0.16092996299266815,0.867502748966217,0.00468497583642602,-0.019977688789367676,0.0018115227576345205,0.0477902777493,0.9986559748649597
1724368205.257297,3003,1724368205,257154864,world,0.1609320044517517,0.8675008416175842,0.004682979080826044,-0.01998930610716343,0.001859799725934863,0.04782761633396149,0.9986538290977478
1724368205.2673297,3004,1724368205,267156416,world,0.16093091666698456,0.8675026893615723,0.00467871455475688,-0.01989785209298134,0.0017192964442074299,0.04774535447359085,0.9986598491668701
1724368205.2773643,3005,1724368205,277165113,world,0.16092562675476074,0.8675047755241394,0.004681738559156656,-0.02003140188753605,0.0016840234166011214,0.04780151695013046,0.9986546039581299
1724368205.2873695,3006,1724368205,287246053,world,0.16092745959758759,0.8675053715705872,0.0046875616535544395,-0.0198765117675066,0.0017892488976940513,0.04781968146562576,0.998656690120697
1724368205.2972853,3007,1724368205,297149739,world,0.1609325259923935,0.8675085306167603,0.00468019675463438,-0.019940199330449104,0.001843891222961247,0.04772684723138809,0.9986596703529358
1724368205.2972953,3008,1724368205,297160813,world,0.1609322726726532,0.8675072193145752,0.004681919235736132,-0.019970368593931198,0.0018322167452424765,0.04779764637351036,0.9986557364463806
1724368205.3073242,3009,1724368205,307158493,world,0.1609278917312622,0.8675091862678528,0.004687180742621422,-0.01995495706796646,0.0018139196326956153,0.04774819314479828,0.9986584782600403
1724368205.317303,3010,1724368205,317161727,world,0.16096660494804382,0.8674350380897522,0.004775506444275379,-0.02201242744922638,0.0016613855259492993,0.04818147420883179,0.9985947012901306
1724368205.327267,3011,1724368205,327122977,world,0.16093583405017853,0.8675046563148499,0.00467942887917161,-0.01989583671092987,0.0018589443061500788,0.047793760895729065,0.9986573457717896
1724368205.3373356,3012,1724368205,337159755,world,0.16093896329402924,0.8675076365470886,0.00468195928260684,-0.019898297265172005,0.0017357030883431435,0.04781871289014816,0.9986563920974731
1724368205.3472664,3013,1724368205,347125614,world,0.16092544794082642,0.8675054311752319,0.0046824077144265175,-0.02000727877020836,0.0018772800685837865,0.04772420972585678,0.9986584186553955
1724368205.3572755,3014,1724368205,357115020,world,0.16093315184116364,0.8675060272216797,0.004679201636463404,-0.01993214152753353,0.0018523678882047534,0.04776059836149216,0.9986582398414612
1724368205.3572881,3015,1724368205,357128506,world,0.16093483567237854,0.8674991130828857,0.0046784235164523125,-0.019951334223151207,0.0018662536749616265,0.04774237796664238,0.9986586570739746
1724368205.3674614,3016,1724368205,367089639,world,0.16092461347579956,0.8675042390823364,0.004677387420088053,-0.01990070380270481,0.0016685004811733961,0.04777289927005768,0.9986586570739746
1724368205.3773696,3017,1724368205,377225249,world,0.16092878580093384,0.86750328540802,0.004684966057538986,-0.020007720217108727,0.001824868144467473,0.047768484801054,0.9986564517021179
1724368205.3872592,3018,1724368205,387133461,world,0.1609366238117218,0.8675051331520081,0.004673856310546398,-0.01990717276930809,0.0017284513451159,0.04779696837067604,0.9986572265625
1724368205.3972948,3019,1724368205,397149948,world,0.160933718085289,0.8675062656402588,0.00466814823448658,-0.019881170243024826,0.0017295621801167727,0.04776283726096153,0.9986594319343567
1724368205.407264,3020,1724368205,407113981,world,0.16093486547470093,0.8675069212913513,0.004676953889429569,-0.020055752247571945,0.0019104514503851533,0.047780316323041916,0.9986546635627747
1724368205.40727,3021,1724368205,407127426,world,0.16093705594539642,0.8675061464309692,0.004677038639783859,-0.019905371591448784,0.0016677279490977526,0.04775231331586838,0.9986594915390015
1724368205.4173307,3022,1724368205,417165598,world,0.160927414894104,0.8675075769424438,0.004670789465308189,-0.019847091287374496,0.0017000172520056367,0.04781099036335945,0.9986578226089478
1724368205.4273298,3023,1724368205,427218662,world,0.16093027591705322,0.8675028681755066,0.004677189979702234,-0.02004399336874485,0.0017625190084800124,0.047852449119091034,0.9986517429351807
1724368205.4373317,3024,1724368205,437156555,world,0.16092392802238464,0.8675106763839722,0.004673369228839874,-0.019954463467001915,0.0018188590183854103,0.04777722433209419,0.9986570477485657
1724368205.447302,3025,1724368205,447148686,world,0.1609296053647995,0.867506206035614,0.004684863146394491,-0.019906172528862953,0.0017424736870452762,0.047806330025196075,0.9986567497253418
1724368205.4473066,3026,1724368205,447159481,world,0.16094258427619934,0.8675054907798767,0.004685147199779749,-0.020018743351101875,0.0018220768542960286,0.04776787385344505,0.9986562132835388
1724368205.4573166,3027,1724368205,457158945,world,0.16095955669879913,0.8674363493919373,0.0047675855457782745,-0.022025400772690773,0.0016433558193966746,0.04811014607548714,0.9985978007316589
1724368205.4672556,3028,1724368205,467161688,world,0.16092874109745026,0.8675081729888916,0.004682342056185007,-0.020014386624097824,0.0017777493922039866,0.04779684916138649,0.9986549615859985
1724368205.477284,3029,1724368205,477132969,world,0.1609322726726532,0.8675025105476379,0.004672545939683914,-0.020015710964798927,0.0018101620953530073,0.047774702310562134,0.9986559748649597
1724368205.487665,3030,1724368205,487274119,world,0.16093240678310394,0.8675048351287842,0.004682542756199837,-0.01996159926056862,0.0018794003408402205,0.04782173037528992,0.9986546635627747
1724368205.4977355,3031,1724368205,497308945,world,0.1609305739402771,0.8675002455711365,0.004683943931013346,-0.019977862015366554,0.0016793159302324057,0.047768451273441315,0.9986572861671448
1724368205.5076866,3032,1724368205,507223384,world,0.16092590987682343,0.8674992322921753,0.004671481437981129,-0.020063485950231552,0.0018712029559537768,0.04775090143084526,0.9986560940742493
1724368205.5077288,3033,1724368205,507277015,world,0.16093236207962036,0.8675041198730469,0.0046816058456897736,-0.019982835277915,0.00169078866019845,0.04777469113469124,0.9986568093299866
1724368205.5198097,3034,1724368205,517251738,world,0.160936176776886,0.8675108551979065,0.004696028772741556,-0.019982917234301567,0.0017508754972368479,0.04779469966888428,0.9986557364463806
1724368205.5276377,3035,1724368205,527247027,world,0.16096100211143494,0.8674367070198059,0.004774765577167273,-0.022001760080456734,0.0015507603529840708,0.048163071274757385,0.9985960125923157
1724368205.537361,3036,1724368205,537158308,world,0.16094346344470978,0.8675028085708618,0.004683563951402903,-0.01989343762397766,0.0018408728064969182,0.04774734750390053,0.9986596703529358
1724368205.5473309,3037,1724368205,547170984,world,0.16093644499778748,0.8675075173377991,0.004686687141656876,-0.020074641332030296,0.001767641049809754,0.04779549315571785,0.9986538290977478
1724368205.5473397,3038,1724368205,547190095,world,0.1609286665916443,0.8675100803375244,0.004684538580477238,-0.019886787980794907,0.0017325408989563584,0.04770238324999809,0.9986621737480164
1724368205.5572653,3039,1724368205,557115207,world,0.16092602908611298,0.8675048351287842,0.004675759468227625,-0.01991402544081211,0.0017004281980916858,0.04773785173892975,0.9986599087715149
1724368205.5672042,3040,1724368205,567108275,world,0.1609245240688324,0.8675065040588379,0.0046756211668252945,-0.020018596202135086,0.0016794847324490547,0.047804709523916245,0.9986546635627747
1724368205.5773222,3041,1724368205,577138643,world,0.16092568635940552,0.8675034046173096,0.004679036792367697,-0.02000708319246769,0.0018178286263719201,0.047787196934223175,0.9986555576324463
1724368205.5873113,3042,1724368205,587163594,world,0.1609286367893219,0.8674988150596619,0.004681872203946114,-0.019956547766923904,0.001790140406228602,0.04775720089673996,0.9986580610275269
1724368205.5973365,3043,1724368205,597165379,world,0.1609334498643875,0.8674973845481873,0.004676457028836012,-0.0199907124042511,0.0018017718102782965,0.04774430766701698,0.9986579418182373
1724368205.597343,3044,1724368205,597179183,world,0.16092689335346222,0.867499828338623,0.004676596261560917,-0.020027469843626022,0.0017834956524893641,0.047796450555324554,0.9986547231674194
1724368205.6072357,3045,1724368205,607114949,world,0.16092811524868011,0.8675063252449036,0.0046728625893592834,-0.019922493025660515,0.0019127220148220658,0.04779871925711632,0.9986565113067627
1724368205.6173,3046,1724368205,617140688,world,0.16093096137046814,0.8675053119659424,0.004679410718381405,-0.01976211927831173,0.001844692276790738,0.04781397432088852,0.998659074306488
1724368205.627273,3047,1724368205,627180158,world,0.16092799603939056,0.8675023913383484,0.004681677557528019,-0.019991815090179443,0.0018406212329864502,0.04775654524564743,0.9986572265625
1724368205.6373103,3048,1724368205,637137207,world,0.16092875599861145,0.8675094842910767,0.0046784463338553905,-0.019929125905036926,0.0017809210112318397,0.04779323562979698,0.9986568689346313
1724368205.6472728,3049,1724368205,647143948,world,0.16092842817306519,0.8675055503845215,0.00467776320874691,-0.020117150619626045,0.0018739915685728192,0.047813884913921356,0.9986519813537598
1724368205.647286,3050,1724368205,647158112,world,0.16093239188194275,0.8675023913383484,0.004676220938563347,-0.01996861957013607,0.0018279858632013202,0.04779413715004921,0.9986559152603149
1724368205.657296,3051,1724368205,657115672,world,0.1609308123588562,0.8675024509429932,0.004678442608565092,-0.019870257005095482,0.0018793147755786777,0.04773271456360817,0.9986608028411865
1724368205.667283,3052,1724368205,667112954,world,0.1609329879283905,0.8675040006637573,0.004679085686802864,-0.020029358565807343,0.0018361423863098025,0.047855451703071594,0.9986517429351807
1724368205.677329,3053,1724368205,677167506,world,0.16092994809150696,0.8675018548965454,0.004668596666306257,-0.0199438463896513,0.0018686848925426602,0.04775533825159073,0.9986582398414612
1724368205.6872892,3054,1724368205,687134515,world,0.16093666851520538,0.8675011396408081,0.004683977458626032,-0.01997845433652401,0.0018658514600247145,0.04777142032980919,0.9986567497253418
1724368205.6972816,3055,1724368205,697132384,world,0.1609305590391159,0.8675056099891663,0.004680153913795948,-0.01994769275188446,0.0018198277102783322,0.04776284098625183,0.9986578226089478
1724368205.6972868,3056,1724368205,697141877,world,0.16092997789382935,0.8675084114074707,0.004678857047110796,-0.019953656941652298,0.0016469124238938093,0.04772745072841644,0.9986597895622253
1724368205.7072868,3057,1724368205,707130037,world,0.16093206405639648,0.8675090670585632,0.004678959958255291,-0.01990606263279915,0.0017469425220042467,0.04782320186495781,0.9986559748649597
1724368205.7173212,3058,1724368205,717155794,world,0.16093525290489197,0.8675084710121155,0.0046797869727015495,-0.019986987113952637,0.001673028222285211,0.047788068652153015,0.998656153678894
1724368205.7273037,3059,1724368205,727154188,world,0.1609252542257309,0.8675040006637573,0.004685430321842432,-0.019948892295360565,0.0017074367497116327,0.04774293303489685,0.9986590147018433
1724368205.7372527,3060,1724368205,737119739,world,0.16093328595161438,0.8675019145011902,0.004674952942878008,-0.019952524453401566,0.0017013612668961287,0.047794803977012634,0.9986565113067627
1724368205.7473218,3061,1724368205,747166072,world,0.16093333065509796,0.867500901222229,0.004680797923356295,-0.020014747977256775,0.0017797054024413228,0.04775073379278183,0.9986572265625
1724368205.7473273,3062,1724368205,747179469,world,0.16092833876609802,0.8675026297569275,0.0046807462349534035,-0.020027518272399902,0.001683535287156701,0.04779648035764694,0.9986549615859985
1724368205.7572653,3063,1724368205,757110869,world,0.1609325110912323,0.8675038814544678,0.004689335357397795,-0.019988618791103363,0.0016987018752843142,0.04778170585632324,0.9986563324928284
1724368205.7673326,3064,1724368205,767163741,world,0.1609383076429367,0.8675029873847961,0.004678401164710522,-0.019921965897083282,0.00171113561373204,0.04767731577157974,0.9986627101898193
1724368205.7777424,3065,1724368205,777139458,world,0.16093659400939941,0.8675035834312439,0.004684960003942251,-0.019940543919801712,0.0017922912957146764,0.04776807501912117,0.998657763004303
1724368205.787297,3066,1724368205,787134766,world,0.16092190146446228,0.8675040006637573,0.00468743871897459,-0.019905423745512962,0.0017437514616176486,0.04773584380745888,0.998660147190094
1724368205.7972429,3067,1724368205,797100176,world,0.1609274446964264,0.8675017356872559,0.004685080144554377,-0.01995835080742836,0.0017810711869969964,0.04778524115681648,0.9986566305160522
1724368205.797253,3068,1724368205,797110918,world,0.16093121469020844,0.8675010204315186,0.0046817162074148655,-0.0199250690639019,0.0017295547295361757,0.04773515835404396,0.9986598491668701
1724368205.8072736,3069,1724368205,807151167,world,0.1609208583831787,0.8675001859664917,0.004682672675698996,-0.020065171644091606,0.0016663456335663795,0.04779593273997307,0.9986541867256165
1724368205.8172863,3070,1724368205,817138078,world,0.160923033952713,0.8674995303153992,0.00468552578240633,-0.01991889998316765,0.0017153810476884246,0.04776472970843315,0.9986585974693298
1724368205.8272586,3071,1724368205,827130360,world,0.16093121469020844,0.8675028681755066,0.004689636640250683,-0.019984513521194458,0.0016353584360331297,0.047761041671037674,0.9986575245857239
1724368205.837326,3072,1724368205,837162167,world,0.16093075275421143,0.8675056099891663,0.004684592131525278,-0.019884567707777023,0.0018776581855490804,0.04774058610200882,0.9986600875854492
1724368205.847293,3073,1724368205,847162286,world,0.16093099117279053,0.8675057888031006,0.004688973538577557,-0.019953949376940727,0.0016740201972424984,0.04778195545077324,0.9986570477485657
1724368205.847299,3074,1724368205,847177182,world,0.16093119978904724,0.8675040602684021,0.004691922105848789,-0.019940057769417763,0.0016963668167591095,0.04780203476548195,0.9986563324928284
1724368205.8573039,3075,1724368205,857139136,world,0.16093143820762634,0.8675036430358887,0.004684331361204386,-0.019868701696395874,0.0018695236649364233,0.047753967344760895,0.9986597895622253
1724368205.8672924,3076,1724368205,867144041,world,0.16093330085277557,0.8675071001052856,0.00468846270814538,-0.019975213333964348,0.0017737323651090264,0.047769565135240555,0.9986571073532104
1724368205.8773363,3077,1724368205,877174150,world,0.16092312335968018,0.8675059080123901,0.0046811397187411785,-0.01985052041709423,0.0017780836205929518,0.04776105657219887,0.9986599683761597
1724368205.887302,3078,1724368205,887163378,world,0.16092173755168915,0.8675055503845215,0.004680850077420473,-0.019951628521084785,0.0017139504197984934,0.04777837172150612,0.9986572861671448
1724368205.897311,3079,1724368205,897138107,world,0.1609303057193756,0.8675059676170349,0.0046882424503564835,-0.019938426092267036,0.001840741140767932,0.047814641147851944,0.9986555576324463
1724368205.907324,3080,1724368205,907169225,world,0.16092842817306519,0.8675126433372498,0.004677139222621918,-0.020009668543934822,0.0016224243445321918,0.04771394655108452,0.9986593127250671
1724368205.907329,3081,1724368205,907182546,world,0.16092975437641144,0.8675022721290588,0.004691683687269688,-0.01996893435716629,0.00180492689833045,0.04776694253087044,0.9986573457717896
1724368205.9173312,3082,1724368205,917159641,world,0.1609286069869995,0.8674987554550171,0.004678182769566774,-0.019958753138780594,0.00180771853774786,0.04775632545351982,0.9986580014228821
1724368205.9272878,3083,1724368205,927132872,world,0.16093653440475464,0.8675036430358887,0.00468019163236022,-0.01987142488360405,0.0018307995051145554,0.047774139791727066,0.9986588954925537
1724368205.9372554,3084,1724368205,937146702,world,0.16092653572559357,0.8675034046173096,0.0046831537038087845,-0.020043503493070602,0.001624483847990632,0.047771669924259186,0.9986558556556702
1724368205.9473119,3085,1724368205,947137858,world,0.16092625260353088,0.8675070405006409,0.004678525496274233,-0.01993178017437458,0.001648510922677815,0.04780077561736107,0.9986566305160522
1724368205.9473176,3086,1724368205,947150676,world,0.16092616319656372,0.8675021529197693,0.004681084305047989,-0.01997578889131546,0.0017091329209506512,0.047740016132593155,0.9986586570739746
1724368205.9573467,3087,1724368205,957167612,world,0.16092637181282043,0.8675047755241394,0.004690462723374367,-0.019939091056585312,0.001971451798453927,0.04780586063861847,0.9986556768417358
1724368205.967276,3088,1724368205,967127992,world,0.16092923283576965,0.867500364780426,0.004687896929681301,-0.01997474394738674,0.0018067522905766964,0.04774145409464836,0.9986583590507507
1724368205.9772825,3089,1724368205,977105409,world,0.16093049943447113,0.8675036430358887,0.004686170257627964,-0.019857563078403473,0.0018605571240186691,0.04773993790149689,0.9986607432365417
1724368205.9873137,3090,1724368205,987145885,world,0.16092903912067413,0.8675036430358887,0.004681674297899008,-0.01991334557533264,0.0017239270964637399,0.04780784994363785,0.9986565709114075
1724368205.9973235,3091,1724368205,997153199,world,0.16093569993972778,0.8675018548965454,0.004688397981226444,-0.019959168508648872,0.0018468286143615842,0.04778171330690384,0.9986567497253418
1724368205.9973361,3092,1724368205,997166805,world,0.16093456745147705,0.8675026893615723,0.004686448257416487,-0.019939342513680458,0.0019302120199427009,0.04778563231229782,0.9986567497253418
1724368206.0073225,3093,1724368206,7157258,world,0.16092851758003235,0.867504358291626,0.004689058288931847,-0.019887086004018784,0.0018266363767907023,0.047779329121112823,0.9986582398414612
1724368206.017293,3094,1724368206,17135450,world,0.16092801094055176,0.8675106763839722,0.004695295821875334,-0.019952723756432533,0.0017028203001245856,0.04779387265443802,0.9986564517021179
1724368206.0272539,3095,1724368206,27128147,world,0.16092702746391296,0.8675065636634827,0.004689048510044813,-0.01995067112147808,0.001753764576278627,0.04771331325173378,0.9986602663993835
1724368206.0373113,3096,1724368206,37147495,world,0.16093596816062927,0.86750328540802,0.004687513690441847,-0.020037228241562843,0.0018232036381959915,0.047800369560718536,0.998654305934906
1724368206.0473406,3097,1724368206,47159603,world,0.16093049943447113,0.8675059080123901,0.004684517625719309,-0.019879233092069626,0.0017178823472931981,0.04780768230557442,0.9986572861671448
1724368206.0473514,3098,1724368206,47173048,world,0.1609354466199875,0.8675029873847961,0.004685109946876764,-0.020056212320923805,0.0019536809995770454,0.04781282693147659,0.9986531138420105
1724368206.057328,3099,1724368206,57163957,world,0.16093651950359344,0.8675045967102051,0.0046931165270507336,-0.019944731146097183,0.0017736395820975304,0.0478317029774189,0.9986547827720642
1724368206.0672739,3100,1724368206,67152318,world,0.16095943748950958,0.8674362897872925,0.00477422634139657,-0.022004183381795883,0.0016560213407501578,0.04811118543148041,0.9985982179641724
1724368206.0773067,3101,1724368206,77125204,world,0.1609383374452591,0.8675031065940857,0.004684504587203264,-0.020038185641169548,0.0018165073124691844,0.04780104383826256,0.9986542463302612
1724368206.08734,3102,1724368206,87166167,world,0.1609289050102234,0.8675082921981812,0.004688386805355549,-0.02003411017358303,0.0017635058611631393,0.04776743799448013,0.9986560344696045
1724368206.0972438,3103,1724368206,97119815,world,0.16092883050441742,0.8675045967102051,0.004689436871558428,-0.019983777776360512,0.0017891393508762121,0.04778742790222168,0.9986560940742493
1724368206.097255,3104,1724368206,97129897,world,0.1609298139810562,0.8675010204315186,0.004683090839534998,-0.019836606457829475,0.001732036704197526,0.047730810940265656,0.9986617565155029
1724368206.1072688,3105,1724368206,107128308,world,0.16092771291732788,0.8675049543380737,0.004683114122599363,-0.019942693412303925,0.001814337563700974,0.04781860485672951,0.9986553192138672
1724368206.1173155,3106,1724368206,117139304,world,0.16092966496944427,0.8675064444541931,0.0046859197318553925,-0.019945872947573662,0.001792985131032765,0.047831978648900986,0.9986547231674194
1724368206.1272926,3107,1724368206,127131481,world,0.16093483567237854,0.8675059080123901,0.00468653766438365,-0.019853703677654266,0.001725651673041284,0.04776648432016373,0.9986597895622253
1724368206.1377082,3108,1724368206,137274373,world,0.16093510389328003,0.8675071001052856,0.00467576552182436,-0.019954603165388107,0.0018493668176233768,0.0478132925927639,0.9986552596092224
1724368206.1477005,3109,1724368206,147263241,world,0.16093583405017853,0.8675028085708618,0.004682523664087057,-0.019934700801968575,0.0017469258746132255,0.04785236343741417,0.9986539483070374
1724368206.147737,3110,1724368206,147309133,world,0.16093099117279053,0.867505669593811,0.004680757876485586,-0.01986272633075714,0.001819488126784563,0.047818128019571304,0.9986569285392761
1724368206.1575742,3111,1724368206,157179357,world,0.16093021631240845,0.8675068020820618,0.004688335582613945,-0.02004026435315609,0.001789415837265551,0.04781406372785568,0.9986536502838135
1724368206.1674814,3112,1724368206,167183774,world,0.1609325110912323,0.8675016164779663,0.004686133470386267,-0.01998632587492466,0.001685650902800262,0.047845259308815,0.9986534118652344
1724368206.177336,3113,1724368206,177146067,world,0.16092440485954285,0.8675078749656677,0.0046798838302493095,-0.019983839243650436,0.0017774257576093078,0.04781987518072128,0.9986545443534851
1724368206.1873095,3114,1724368206,187175942,world,0.16093586385250092,0.8675074577331543,0.004692193120718002,-0.019906911998987198,0.0017502972623333335,0.047733742743730545,0.998660147190094
1724368206.1972833,3115,1724368206,197131734,world,0.16093331575393677,0.8675082325935364,0.004682857543230057,-0.019901422783732414,0.0018797880038619041,0.047851596027612686,0.9986544251441956
1724368206.1972902,3116,1724368206,197144868,world,0.16093562543392181,0.8675054311752319,0.004686366766691208,-0.020035043358802795,0.0018362386617809534,0.0478571280837059,0.9986515641212463
1724368206.207333,3117,1724368206,207172140,world,0.16093562543392181,0.867505669593811,0.004684803541749716,-0.01995328813791275,0.0017461276147514582,0.0478409081697464,0.9986541867256165
1724368206.2173247,3118,1724368206,217148507,world,0.16092878580093384,0.8675093054771423,0.004688621964305639,-0.019966010004281998,0.0018214639276266098,0.047773201018571854,0.9986570477485657
1724368206.2272716,3119,1724368206,227123770,world,0.1609223186969757,0.8675060272216797,0.004681764170527458,-0.0199930127710104,0.0017795476596802473,0.04781803861260414,0.9986544251441956
1724368206.237523,3120,1724368206,237225481,world,0.16092044115066528,0.8675121068954468,0.004685480147600174,-0.020031047984957695,0.0018079612636938691,0.047840289771556854,0.9986525177955627
1724368206.2473226,3121,1724368206,247162251,world,0.16092480719089508,0.8675074577331543,0.004680593963712454,-0.019891859963536263,0.0018544840859249234,0.04775305464863777,0.9986593723297119
1724368206.2473373,3122,1724368206,247184773,world,0.1609286367893219,0.8675082921981812,0.004689604509621859,-0.019909650087356567,0.00166934949811548,0.04779960587620735,0.9986571669578552
1724368206.2573795,3123,1724368206,257180636,world,0.1609261929988861,0.8675022125244141,0.004688981454819441,-0.0199666079133749,0.001827917410992086,0.047813087701797485,0.9986550807952881
1724368206.2672698,3124,1724368206,267146786,world,0.16092517971992493,0.8675075173377991,0.004692325368523598,-0.020115531980991364,0.0017390204593539238,0.0477968268096447,0.9986530542373657
1724368206.277299,3125,1724368206,277112462,world,0.16093133389949799,0.8675122261047363,0.0046773203648626804,-0.019924776628613472,0.0017362900543957949,0.047748833894729614,0.9986591935157776
1724368206.2872646,3126,1724368206,287112172,world,0.16093750298023224,0.8675076365470886,0.004688346292823553,-0.019855162128806114,0.001725924201309681,0.04778009653091431,0.998659074306488
1724368206.2972825,3127,1724368206,297121216,world,0.1609349250793457,0.8675106763839722,0.0046899146400392056,-0.02010957896709442,0.001812070608139038,0.0478200726211071,0.9986518621444702
1724368206.2972887,3128,1724368206,297131606,world,0.16092424094676971,0.8675073981285095,0.004688021261245012,-0.019906003028154373,0.0017246495699509978,0.04777546972036362,0.9986582398414612
1724368206.307327,3129,1724368206,307158402,world,0.16093114018440247,0.8675081133842468,0.0046881721355021,-0.01997920498251915,0.0017514284700155258,0.04778459668159485,0.9986563920974731
1724368206.3172803,3130,1724368206,317136019,world,0.1609310358762741,0.8675094246864319,0.004688947461545467,-0.019919274374842644,0.0017252956749871373,0.04776519164443016,0.9986584782600403
1724368206.3272731,3131,1724368206,327155748,world,0.160925954580307,0.8675100207328796,0.00469038775190711,-0.019979100674390793,0.0017312475247308612,0.04784724861383438,0.9986533522605896
1724368206.3372734,3132,1724368206,337141604,world,0.16093507409095764,0.8675104379653931,0.004688349552452564,-0.020014511421322823,0.0017621348379179835,0.04780355095863342,0.9986546635627747
1724368206.347322,3133,1724368206,347140299,world,0.1609390825033188,0.8675104379653931,0.0046866778284311295,-0.01995321549475193,0.0018125284695997834,0.047767821699380875,0.9986575245857239
1724368206.3473318,3134,1724368206,347153608,world,0.16093462705612183,0.8675091862678528,0.004688071087002754,-0.019932936877012253,0.0017184942262247205,0.04783450812101364,0.9986549615859985
1724368206.357295,3135,1724368206,357157151,world,0.16093407571315765,0.8675098419189453,0.004686871077865362,-0.01996617577970028,0.00170904619153589,0.04778703302145004,0.9986565113067627
1724368206.3672807,3136,1724368206,367148465,world,0.1609363853931427,0.8675099611282349,0.004689175635576248,-0.01998456008732319,0.0017996482783928514,0.0478295162320137,0.9986540079116821
1724368206.3773003,3137,1724368206,377131387,world,0.1609659641981125,0.86744624376297,0.004774383269250393,-0.022011367604136467,0.0017484292620792985,0.04815145209431648,0.9985959529876709
1724368206.3872685,3138,1724368206,387108777,world,0.16092604398727417,0.8675129413604736,0.0046966057270765305,-0.019914943724870682,0.00173272960819304,0.047791630029678345,0.9986572861671448
1724368206.3972838,3139,1724368206,397130949,world,0.16092747449874878,0.8675104379653931,0.004693169612437487,-0.019979167729616165,0.0018503322498872876,0.04777780547738075,0.9986564517021179
1724368206.3972952,3140,1724368206,397141249,world,0.16092820465564728,0.8675119876861572,0.004678807221353054,-0.01988876610994339,0.0016742842271924019,0.04768947884440422,0.9986628293991089
1724368206.407304,3141,1724368206,407159434,world,0.16092610359191895,0.8675180077552795,0.004675889853388071,-0.019948234781622887,0.001815333031117916,0.04774415120482445,0.9986587762832642
1724368206.4173253,3142,1724368206,417159323,world,0.16092932224273682,0.867506742477417,0.00468393974006176,-0.019929226487874985,0.0016135710757225752,0.047801483422517776,0.9986568093299866
1724368206.4272711,3143,1724368206,427118558,world,0.16093075275421143,0.8675076365470886,0.004689780529588461,-0.019919846206903458,0.0017190807266160846,0.04771720990538597,0.9986607432365417
1724368206.437239,3144,1724368206,437097439,world,0.16093260049819946,0.8675082325935364,0.004690889269113541,-0.01990555226802826,0.0017672928515821695,0.04782100021839142,0.9986559748649597
1724368206.4473178,3145,1724368206,447133758,world,0.16093027591705322,0.8675087690353394,0.004685715772211552,-0.01998838596045971,0.001734319026581943,0.04772985726594925,0.9986587762832642
1724368206.4473271,3146,1724368206,447148598,world,0.16092456877231598,0.8675093650817871,0.004682944156229496,-0.019980503246188164,0.001776334480382502,0.04777267575263977,0.9986568093299866
1724368206.4573202,3147,1724368206,457162035,world,0.16093719005584717,0.8675112128257751,0.004690641537308693,-0.019947025924921036,0.0017416176851838827,0.04782199114561081,0.9986552000045776
1724368206.46722,3148,1724368206,467095177,world,0.16092994809150696,0.8675107359886169,0.004687370732426643,-0.019994894042611122,0.0016915472224354744,0.04779176041483879,0.9986557960510254
1724368206.4773211,3149,1724368206,477143061,world,0.1609308123588562,0.8675068616867065,0.004686296451836824,-0.02003713883459568,0.0017794070299714804,0.047816649079322815,0.9986536502838135
1724368206.4872706,3150,1724368206,487109807,world,0.16093596816062927,0.8675068616867065,0.004688179586082697,-0.0200148057192564,0.0017145676538348198,0.047790464013814926,0.9986554384231567
1724368206.4972773,3151,1724368206,497118926,world,0.160936176776886,0.867505669593811,0.0046860999427735806,-0.019948769360780716,0.0018774300115182996,0.04778324067592621,0.9986567497253418
1724368206.4972825,3152,1724368206,497128999,world,0.1609381139278412,0.867509126663208,0.0046869972720742226,-0.019923055544495583,0.0017577811377122998,0.04780060797929764,0.998656690120697
1724368206.5072591,3153,1724368206,507098642,world,0.1609332263469696,0.8675096035003662,0.00469361525028944,-0.019895082339644432,0.0018114837585017085,0.04776759445667267,0.9986587166786194
1724368206.5173376,3154,1724368206,517159961,world,0.16093015670776367,0.8675062656402588,0.004686038009822369,-0.01998809538781643,0.001752830226905644,0.04775822535157204,0.9986574649810791
1724368206.5272398,3155,1724368206,527128012,world,0.1609371304512024,0.8675087094306946,0.004690228495746851,-0.019957343116402626,0.001855265349149704,0.04778052121400833,0.9986568093299866
1724368206.5372746,3156,1724368206,537145122,world,0.16092896461486816,0.8675004839897156,0.004681875463575125,-0.019911745563149452,0.0017972589703276753,0.047801531851291656,0.9986568093299866
1724368206.5473182,3157,1724368206,547158800,world,0.16092905402183533,0.8675072193145752,0.004682527855038643,-0.01999969221651554,0.001836392330005765,0.04776010289788246,0.9986569285392761
1724368206.5473278,3158,1724368206,547172665,world,0.16093483567237854,0.8675040006637573,0.004690293688327074,-0.02005339041352272,0.0017471330938860774,0.04779902100563049,0.9986541867256165
1724368206.5572798,3159,1724368206,557132599,world,0.16093654930591583,0.8674981594085693,0.004680004436522722,-0.019980646669864655,0.001855462440289557,0.04780779778957367,0.9986550211906433
1724368206.567267,3160,1724368206,567154050,world,0.16093182563781738,0.8674983382225037,0.004683416802436113,-0.01990612968802452,0.0018822508864104748,0.04779847338795662,0.9986568689346313
1724368206.5773034,3161,1724368206,577153477,world,0.160936638712883,0.8675028681755066,0.004685841966420412,-0.019992724061012268,0.0017466185381636024,0.0478600449860096,0.998652458190918
1724368206.5872326,3162,1724368206,587112426,world,0.16096532344818115,0.8674249053001404,0.004765452817082405,-0.0219515860080719,0.0016373132821172476,0.04816566780209541,0.9985967874526978
1724368206.5973082,3163,1724368206,597150396,world,0.16093498468399048,0.8675011396408081,0.004675741773098707,-0.019963763654232025,0.0017078869277611375,0.04780561476945877,0.9986556768417358
1724368206.5973186,3164,1724368206,597160957,world,0.1609332114458084,0.8674969673156738,0.004682798869907856,-0.01989716850221157,0.0017153499647974968,0.04777701944112778,0.9986584186553955
1724368206.6073165,3165,1724368206,607155006,world,0.16093221306800842,0.8674965500831604,0.004682603292167187,-0.019998272880911827,0.001770335715264082,0.04778335615992546,0.9986559748649597
1724368206.6173465,3166,1724368206,617162812,world,0.16093863546848297,0.8675029277801514,0.004677108488976955,-0.019888155162334442,0.0017473918851464987,0.04780939966440201,0.9986569881439209
1724368206.6272879,3167,1724368206,627138903,world,0.1609257161617279,0.8675000667572021,0.004681549035012722,-0.019995857030153275,0.0016771812224760652,0.04779861494898796,0.9986554980278015
1724368206.637242,3168,1724368206,637098260,world,0.16092276573181152,0.8675033450126648,0.004685756750404835,-0.019968485459685326,0.0017467137658968568,0.047813449054956436,0.9986552000045776
1724368206.6473002,3169,1724368206,647166999,world,0.16093090176582336,0.8674989342689514,0.004684531129896641,-0.01996990293264389,0.0018580442992970347,0.047796305269002914,0.9986557364463806
1724368206.647312,3170,1724368206,647180347,world,0.16093036532402039,0.867501974105835,0.004679458681493998,-0.019947564229369164,0.0016964528476819396,0.047748684883117676,0.9986587762832642
1724368206.6572611,3171,1724368206,657111525,world,0.1609351933002472,0.8675020933151245,0.004690174944698811,-0.0199678223580122,0.0017210650257766247,0.047805529087781906,0.9986556768417358
1724368206.6672733,3172,1724368206,667126316,world,0.1609298437833786,0.8674978017807007,0.004684547893702984,-0.020046938210725784,0.0017830164870247245,0.04782130569219589,0.9986531138420105
1724368206.6772847,3173,1724368206,677135339,world,0.16092945635318756,0.8674997687339783,0.0046814545057713985,-0.01993403397500515,0.0016233157366514206,0.04779951274394989,0.998656690120697
1724368206.6872818,3174,1724368206,687138822,world,0.16095730662345886,0.8674325942993164,0.004780571907758713,-0.021975873038172722,0.001531356479972601,0.048108164221048355,0.9985992312431335
1724368206.6972725,3175,1724368206,697143756,world,0.16092705726623535,0.8675041794776917,0.004690506961196661,-0.01990829035639763,0.001783080049790442,0.04775335639715195,0.9986592531204224
1724368206.697283,3176,1724368206,697153909,world,0.16092798113822937,0.8675018548965454,0.0046886117197573185,-0.01988675259053707,0.0017601401777938008,0.04772559553384781,0.9986609816551208
1724368206.707274,3177,1724368206,707129274,world,0.1609286516904831,0.8675016760826111,0.004682787228375673,-0.019949859008193016,0.0017755135195329785,0.04776827618479729,0.9986577033996582
1724368206.71726,3178,1724368206,717114989,world,0.16093221306800842,0.8675053119659424,0.00468834862112999,-0.0200201403349638,0.0016997370403259993,0.04778183996677399,0.9986557364463806
1724368206.7272694,3179,1724368206,727152185,world,0.16093504428863525,0.8675019145011902,0.0046902066096663475,-0.019945787265896797,0.0018270500004291534,0.04777306690812111,0.9986574053764343
1724368206.7372973,3180,1724368206,737151356,world,0.16092857718467712,0.8675052523612976,0.004683237057179213,-0.01998373679816723,0.0017856897320598364,0.04781468212604523,0.9986547231674194
1724368206.7472973,3181,1724368206,747169082,world,0.16092748939990997,0.867501974105835,0.004687509499490261,-0.019978901371359825,0.001692195306532085,0.04780645668506622,0.998655378818512
1724368206.7473047,3182,1724368206,747183451,world,0.16092842817306519,0.8675047159194946,0.004683880601078272,-0.020050812512636185,0.001741240732371807,0.04781357944011688,0.9986535310745239
1724368206.7572863,3183,1724368206,757162701,world,0.16093431413173676,0.8675055503845215,0.004692134913057089,-0.019928360357880592,0.0018051638035103679,0.04776954650878906,0.9986579418182373
1724368206.767278,3184,1724368206,767152593,world,0.16092617809772491,0.8675065636634827,0.004690464586019516,-0.020014064386487007,0.0016603233525529504,0.047772366553545,0.9986563324928284
1724368206.7773297,3185,1724368206,777163892,world,0.160929337143898,0.8675088882446289,0.00469082361087203,-0.01997431553900242,0.0017988727195188403,0.04775797203183174,0.9986576437950134
1724368206.7872763,3186,1724368206,787128569,world,0.16093453764915466,0.8675031065940857,0.004687127191573381,-0.020085018128156662,0.0018228673143312335,0.047810155898332596,0.9986528754234314
1724368206.7972953,3187,1724368206,797148685,world,0.16093650460243225,0.8675056099891663,0.004683337640017271,-0.02001592144370079,0.0017425530822947621,0.047797635197639465,0.9986549615859985
1724368206.7973,3188,1724368206,797158512,world,0.1609586775302887,0.8674354553222656,0.004772814456373453,-0.021920276805758476,0.001688999473117292,0.04815950244665146,0.9985976815223694
1724368206.8073184,3189,1724368206,807154419,world,0.16092613339424133,0.8675039410591125,0.004683088045567274,-0.02003578655421734,0.0017491158796474338,0.047778818756341934,0.9986554384231567
1724368206.81734,3190,1724368206,817171357,world,0.16092777252197266,0.8675059080123901,0.004683016333729029,-0.01983238384127617,0.001796969212591648,0.04773092642426491,0.9986616969108582
1724368206.8272643,3191,1724368206,827124132,world,0.16093313694000244,0.8675051331520081,0.004685353022068739,-0.019976161420345306,0.0016718268161639571,0.04778782278299332,0.9986563324928284
1724368206.83731,3192,1724368206,837174279,world,0.160932719707489,0.8675030469894409,0.0046911584213376045,-0.020134057849645615,0.0017040111124515533,0.04773128777742386,0.9986558556556702
1724368206.847322,3193,1724368206,847161685,world,0.160927876830101,0.8675098419189453,0.004688921384513378,-0.019968288019299507,0.0016650669276714325,0.047750700265169144,0.9986583590507507
1724368206.847333,3194,1724368206,847175383,world,0.16093042492866516,0.8675079345703125,0.004687208216637373,-0.019971730187535286,0.0018147758673876524,0.047788575291633606,0.998656153678894
1724368206.8572989,3195,1724368206,857105058,world,0.1609305441379547,0.8675029277801514,0.004688795190304518,-0.01999383047223091,0.0018205089727416635,0.04777393862605095,0.9986563920974731
1724368206.8672717,3196,1724368206,867120653,world,0.160928875207901,0.8675056099891663,0.00468714814633131,-0.019963698461651802,0.001692111254669726,0.04775629937648773,0.9986580610275269
1724368206.877327,3197,1724368206,877134251,world,0.16092729568481445,0.8675082921981812,0.004682137630879879,-0.019975604489445686,0.0017536368686705828,0.04775005206465721,0.9986580610275269
1724368206.8873217,3198,1724368206,887169895,world,0.16093407571315765,0.8675031065940857,0.004682339262217283,-0.01988893374800682,0.0017870141891762614,0.04780549183487892,0.9986570477485657
1724368206.897301,3199,1724368206,897154920,world,0.1609242558479309,0.8675087690353394,0.004687291570007801,-0.019856486469507217,0.0018162555061280727,0.0477801077067852,0.9986588358879089
1724368206.8973064,3200,1724368206,897165941,world,0.16092482209205627,0.8675066828727722,0.004689134191721678,-0.02004006877541542,0.0017770901322364807,0.04775601625442505,0.9986564517021179
1724368206.9073133,3201,1724368206,907139612,world,0.16092604398727417,0.8675053119659424,0.0046827178448438644,-0.01989249512553215,0.0016944558592513204,0.047739557921886444,0.9986602663993835
1724368206.9172802,3202,1724368206,917135826,world,0.16093191504478455,0.8675090074539185,0.004681818187236786,-0.019967610016465187,0.0017841714434325695,0.0477588064968586,0.998657763004303
1724368206.9272797,3203,1724368206,927150407,world,0.16092707216739655,0.8675051927566528,0.004696503281593323,-0.020016958937048912,0.0017270164098590612,0.047807902097702026,0.9986544847488403
1724368206.9372814,3204,1724368206,937149255,world,0.1609303057193756,0.8675020337104797,0.00468327384442091,-0.019970590248703957,0.0016847795341163874,0.04774149879813194,0.9986586570739746
