Time,header.seq,header.stamp.secs,header.stamp.nsecs,header.frame_id,pose.position.x,pose.position.y,pose.position.z,pose.orientation.x,pose.orientation.y,pose.orientation.z,pose.orientation.w
1724367846.953891,0,1724367846,953717159,world,0.15730294585227966,0.8614463806152344,0.004948778077960014,0.022258158773183823,-0.010746351443231106,-0.02154330536723137,-0.9994624257087708
1724367846.9638355,1,1724367846,963700847,world,0.15737809240818024,0.8619822263717651,0.005725246854126453,0.017875904217362404,-0.008174878545105457,-0.02271336130797863,-0.9995487928390503
1724367846.9738615,2,1724367846,973695380,world,0.15738771855831146,0.8619700074195862,0.005708524491637945,0.01767600141465664,-0.008177895098924637,-0.022583454847335815,-0.9995552897453308
1724367846.9838264,3,1724367846,983667039,world,0.15738552808761597,0.8619664311408997,0.005705155432224274,0.017613567411899567,-0.008274268358945847,-0.02253357693552971,-0.9995567798614502
1724367846.9838345,4,1724367846,983679816,world,0.15738607943058014,0.861984372138977,0.00571370730176568,0.017820866778492928,-0.008265256881713867,-0.022742431610822678,-0.9995483756065369
1724367846.993851,5,1724367846,993703926,world,0.15738512575626373,0.8619837760925293,0.005720788612961769,0.01760268770158291,-0.008207634091377258,-0.02260460890829563,-0.9995558857917786
1724367847.003825,6,1724367847,3678503,world,0.157382071018219,0.8619838953018188,0.0057155415415763855,0.017920317128300667,-0.008122047409415245,-0.022729327902197838,-0.999548077583313
1724367847.0138283,7,1724367847,13714446,world,0.15733708441257477,0.8617147207260132,0.005342620424926281,0.01205009687691927,-0.0103883882984519,-0.02149510197341442,-0.9996424317359924
1724367847.0237932,8,1724367847,23677794,world,0.15738089382648468,0.861972987651825,0.005705513060092926,0.017628641799092293,-0.008351920172572136,-0.022655658423900604,-0.9995530247688293
1724367847.03392,9,1724367847,33779617,world,0.1573859304189682,0.8619809150695801,0.005730336997658014,0.017605626955628395,-0.008108462207019329,-0.02265649288892746,-0.9995554089546204
1724367847.0339246,10,1724367847,33789763,world,0.15738452970981598,0.8619786500930786,0.005731483455747366,0.017767343670129776,-0.00813531968742609,-0.022605102509260178,-0.9995535612106323
1724367847.0438173,11,1724367847,43685934,world,0.15738826990127563,0.861970067024231,0.005711281672120094,0.017883745953440666,-0.0080549456179142,-0.02278319001197815,-0.9995480179786682
1724367847.053854,12,1724367847,53713718,world,0.1573762446641922,0.8619698286056519,0.005733047146350145,0.01761954464018345,-0.008414150215685368,-0.022557472810149193,-0.9995548725128174
1724367847.063818,13,1724367847,63686451,world,0.15738938748836517,0.8619793653488159,0.005734979175031185,0.01763518713414669,-0.00817718543112278,-0.02260504476726055,-0.9995554685592651
1724367847.073789,14,1724367847,73681722,world,0.15737462043762207,0.8619677424430847,0.005727712064981461,0.01787666603922844,-0.008238942362368107,-0.022682707756757736,-0.9995489120483398
1724367847.083965,15,1724367847,83790649,world,0.1573808193206787,0.8619669675827026,0.005721014924347401,0.017939165234565735,-0.00809431355446577,-0.022708039730787277,-0.9995484352111816
1724367847.083976,16,1724367847,83802129,world,0.1573878675699234,0.8619645237922668,0.005711750593036413,0.017772220075130463,-0.008074422366917133,-0.02254646271467209,-0.999555230140686
1724367847.0939019,17,1724367847,93707050,world,0.15738868713378906,0.8619711995124817,0.005732987076044083,0.017893651500344276,-0.008141736499965191,-0.022744325920939445,-0.999548077583313
1724367847.1038542,18,1724367847,103689213,world,0.15738414227962494,0.8619747161865234,0.0057296608574688435,0.01776525005698204,-0.007926386781036854,-0.022656479850411415,-0.9995540380477905
1724367847.1139195,19,1724367847,113711902,world,0.1572352647781372,0.8617057204246521,0.005456899292767048,0.01409111451357603,-0.01045713946223259,-0.02004922740161419,-0.9996449947357178
1724367847.1237686,20,1724367847,123677252,world,0.1572781801223755,0.8617937564849854,0.0056975968182086945,0.019049787893891335,-0.009714668616652489,-0.02073620818555355,-0.9995563626289368
1724367847.133948,21,1724367847,133783746,world,0.15738432109355927,0.8619729280471802,0.005739918444305658,0.01766754500567913,-0.007974488660693169,-0.022702664136886597,-0.9995543360710144
1724367847.1339567,22,1724367847,133793606,world,0.1573832929134369,0.8619791269302368,0.00573451304808259,0.01772349327802658,-0.008259344846010208,-0.02270624227821827,-0.999550998210907
1724367847.1438282,23,1724367847,143688836,world,0.15738296508789062,0.8619792461395264,0.005732396151870489,0.017549987882375717,-0.008223955519497395,-0.02265015058219433,-0.9995556473731995
1724367847.1538732,24,1724367847,153718557,world,0.15738454461097717,0.8619735836982727,0.005726642906665802,0.017783846706151962,-0.008141485042870045,-0.022660445421934128,-0.9995518922805786
1724367847.1638389,25,1724367847,163681348,world,0.15738314390182495,0.8619686961174011,0.005729071795940399,0.017797596752643585,-0.007994323968887329,-0.022677728906273842,-0.9995524883270264
1724367847.1738658,26,1724367847,173701644,world,0.15738584101200104,0.8619805574417114,0.0057396795600652695,0.017611704766750336,-0.008106430061161518,-0.02262556366622448,-0.9995560646057129
1724367847.1838562,27,1724367847,183692030,world,0.15738479793071747,0.8619676828384399,0.005723854061216116,0.01764810085296631,-0.008365978486835957,-0.022614361718297005,-0.9995535612106323
1724367847.183866,28,1724367847,183703810,world,0.15738525986671448,0.8619613647460938,0.005716145969927311,0.017509587109088898,-0.007970437407493591,-0.02276693657040596,-0.999555766582489
1724367847.1939294,29,1724367847,193712392,world,0.15733502805233002,0.8616229295730591,0.005290906876325607,0.02958790957927704,-0.010697592049837112,-0.021848030388355255,-0.9992661476135254
1724367847.2038808,30,1724367847,203694825,world,0.15739841759204865,0.8619682788848877,0.00571958115324378,0.017532167956233025,-0.008144565857946873,-0.02256828173995018,-0.9995584487915039
1724367847.2138925,31,1724367847,213716145,world,0.15739235281944275,0.8619706630706787,0.005710421595722437,0.017704974859952927,-0.008270999416708946,-0.022618670016527176,-0.9995532035827637
1724367847.2238543,32,1724367847,223677180,world,0.15728333592414856,0.861795961856842,0.005677023436874151,0.019138336181640625,-0.009714579209685326,-0.020801091566681862,-0.9995533227920532
1724367847.2339673,33,1724367847,233789818,world,0.1573847383260727,0.8619726896286011,0.0057181622833013535,0.017794393002986908,-0.008052147924900055,-0.02276831865310669,-0.9995500445365906
1724367847.2339776,34,1724367847,233799729,world,0.15738490223884583,0.8619798421859741,0.005743779707700014,0.017769906669855118,-0.008216002956032753,-0.02276047132909298,-0.9995493292808533
1724367847.2438545,35,1724367847,243690814,world,0.15739351511001587,0.8619756102561951,0.005718779284507036,0.017681751400232315,-0.008029414340853691,-0.022715147584676743,-0.999553382396698
1724367847.2538936,36,1724367847,253717074,world,0.15738703310489655,0.8619711399078369,0.005707316566258669,0.017597932368516922,-0.008017015643417835,-0.022800078615546227,-0.9995530247688293
1724367847.2638464,37,1724367847,263696589,world,0.1573883444070816,0.8619756102561951,0.005725043825805187,0.017526986077427864,-0.00828749779611826,-0.0227658711373806,-0.999552845954895
1724367847.2738366,38,1724367847,273701561,world,0.15738125145435333,0.8619710803031921,0.005729451775550842,0.017813922837376595,-0.008299190551042557,-0.022705167531967163,-0.9995490908622742
1724367847.283825,39,1724367847,283694563,world,0.1573403924703598,0.8616266846656799,0.005311016459017992,0.029044516384601593,-0.010832470841705799,-0.021734746173024178,-0.9992830753326416
1724367847.2838347,40,1724367847,283706719,world,0.15738330781459808,0.8619673848152161,0.005712536629289389,0.017902567982673645,-0.008120423182845116,-0.02259921096265316,-0.9995513558387756
1724367847.2938569,41,1724367847,293713197,world,0.15735119581222534,0.8616235852241516,0.005309716332703829,0.029139535501599312,-0.010684825479984283,-0.021682212129235268,-0.9992831349372864
1724367847.3039212,42,1724367847,303738072,world,0.15735049545764923,0.8616248369216919,0.0053022499196231365,0.029116639867424965,-0.010894226841628551,-0.02162991836667061,-0.9992825984954834
1724367847.313856,43,1724367847,313692086,world,0.15738433599472046,0.8619752526283264,0.005716706160455942,0.01785254292190075,-0.008026381023228168,-0.022716820240020752,-0.9995503425598145
1724367847.3238478,44,1724367847,323691639,world,0.15738563239574432,0.861971914768219,0.0057176039554178715,0.01771935634315014,-0.008030270226299763,-0.02267862856388092,-0.9995535612106323
1724367847.3338127,45,1724367847,333704680,world,0.15725933015346527,0.8617162704467773,0.00537010608240962,0.029841963201761246,-0.009432009421288967,-0.022347498685121536,-0.9992603659629822
1724367847.3438723,46,1724367847,343693337,world,0.1573837846517563,0.8619697690010071,0.005725757218897343,0.017774663865566254,-0.008025825023651123,-0.0226922444999218,-0.9995523691177368
1724367847.3438842,47,1724367847,343705964,world,0.15738506615161896,0.8619655966758728,0.0057196589186787605,0.017896326258778572,-0.007970008067786694,-0.022681960836052895,-0.9995508790016174
1724367847.3538864,48,1724367847,353723782,world,0.1573931723833084,0.8619698882102966,0.005733146332204342,0.017913565039634705,-0.007985631003975868,-0.022727465257048607,-0.9995493292808533
1724367847.3638346,49,1724367847,363682501,world,0.15738895535469055,0.8619685173034668,0.005735235288739204,0.01784052513539791,-0.008133294060826302,-0.02262176387012005,-0.9995518326759338
1724367847.373848,50,1724367847,373708361,world,0.15738195180892944,0.8619778752326965,0.005726502276957035,0.017652055248618126,-0.008169315755367279,-0.022670863196253777,-0.9995537996292114
1724367847.383907,51,1724367847,383710931,world,0.15738657116889954,0.8619677424430847,0.005724566522985697,0.01772642694413662,-0.00817484688013792,-0.022651398554444313,-0.9995529055595398
1724367847.383939,52,1724367847,383724414,world,0.1573806256055832,0.8619718551635742,0.005728136748075485,0.01790018379688263,-0.008432643488049507,-0.022642353549599648,-0.9995478391647339
1724367847.3938513,53,1724367847,393681711,world,0.1573820561170578,0.8619766235351562,0.005732886493206024,0.017626626417040825,-0.008060896769165993,-0.02271784283220768,-0.9995540976524353
1724367847.403939,54,1724367847,403714913,world,0.15735039114952087,0.8616265058517456,0.005317544564604759,0.029143139719963074,-0.010475696995854378,-0.021750055253505707,-0.9992836713790894
1724367847.413827,55,1724367847,413705831,world,0.15738865733146667,0.8619755506515503,0.00573196355253458,0.01778411865234375,-0.008117792196571827,-0.022677140310406685,-0.9995517730712891
1724367847.4239364,56,1724367847,423703390,world,0.15727661550045013,0.8617854118347168,0.005679816473275423,0.019024230539798737,-0.009953898377716541,-0.02073996514081955,-0.9995543360710144
1724367847.433982,57,1724367847,433749334,world,0.15738338232040405,0.8619740605354309,0.005724451504647732,0.017859945073723793,-0.008274477906525135,-0.022731751203536987,-0.9995478987693787
1724367847.4340038,58,1724367847,433773628,world,0.1573854386806488,0.8619763851165771,0.005726122763007879,0.01785990223288536,-0.008232931606471539,-0.022706003859639168,-0.9995487928390503
1724367847.4439578,59,1724367847,443732459,world,0.15738791227340698,0.8619709014892578,0.005720410495996475,0.018024388700723648,-0.008007596246898174,-0.022757168859243393,-0.999546468257904
1724367847.4540415,60,1724367847,453765274,world,0.15728114545345306,0.8617932200431824,0.005685361102223396,0.019198574125766754,-0.009998650290071964,-0.020685847848653793,-0.9995517134666443
1724367847.4639976,61,1724367847,463740639,world,0.15739235281944275,0.8619750142097473,0.0057152677327394485,0.017748914659023285,-0.008025930263102055,-0.022771531715989113,-0.999550998210907
1724367847.4739854,62,1724367847,473724038,world,0.15738321840763092,0.8619721531867981,0.005709161516278982,0.017780087888240814,-0.008109288290143013,-0.022737137973308563,-0.9995505213737488
1724367847.483965,63,1724367847,483711130,world,0.15730616450309753,0.8620229363441467,0.005750598385930061,0.018108634278178215,-0.007903123274445534,-0.022813623771071434,-0.9995445013046265
1724367847.4839954,64,1724367847,483739515,world,0.15739141404628754,0.8619797229766846,0.005728439427912235,0.01779434271156788,-0.008129896596074104,-0.02270989492535591,-0.9995507001876831
1724367847.49392,65,1724367847,493695674,world,0.15733516216278076,0.8617165684700012,0.005353341344743967,0.011847887188196182,-0.010614394210278988,-0.021482832729816437,-0.9996426701545715
1724367847.5039895,66,1724367847,503755001,world,0.15727518498897552,0.8617951273918152,0.005683046765625477,0.019000869244337082,-0.009807586669921875,-0.020742977038025856,-0.9995561838150024
1724367847.5139935,67,1724367847,513748496,world,0.1573854237794876,0.861972987651825,0.0057185436598956585,0.017687387764453888,-0.008159528486430645,-0.02272072434425354,-0.9995520710945129
1724367847.524,68,1724367847,523728970,world,0.15735404193401337,0.8616241812705994,0.005303601734340191,0.029235931113362312,-0.010796995833516121,-0.021746236830949783,-0.999277651309967
1724367847.533924,69,1724367847,533731706,world,0.1573912650346756,0.8619720935821533,0.005729416385293007,0.01764639839529991,-0.008142543025314808,-0.022622574120759964,-0.999555230140686
1724367847.5438387,70,1724367847,543681087,world,0.15738853812217712,0.8619782328605652,0.0057115876115858555,0.01801110990345478,-0.00806340854614973,-0.02270001545548439,-0.99954754114151
1724367847.5438461,71,1724367847,543699305,world,0.1573840230703354,0.8619741201400757,0.005722482223063707,0.017695173621177673,-0.007988041266798973,-0.022637251764535904,-0.999555230140686
1724367847.5538852,72,1724367847,553695830,world,0.15738539397716522,0.861968994140625,0.005725412163883448,0.0177405197173357,-0.008099480532109737,-0.022634148597717285,-0.9995536208152771
1724367847.5639296,73,1724367847,563713169,world,0.157342791557312,0.8616226315498352,0.005304316058754921,0.02891717292368412,-0.010504084639251232,-0.0216913390904665,-0.9992913007736206
1724367847.5738933,74,1724367847,573703548,world,0.15727557241916656,0.8618004322052002,0.005691118072718382,0.019095592200756073,-0.009812674485147,-0.020779885351657867,-0.9995536208152771
1724367847.5839078,75,1724367847,583719339,world,0.15730708837509155,0.8620216846466064,0.005759295076131821,0.01817207969725132,-0.008136877790093422,-0.02269531786441803,-0.9995442032814026
1724367847.5938437,76,1724367847,593694408,world,0.15734772384166718,0.8616247177124023,0.005322394892573357,0.029172249138355255,-0.010695834644138813,-0.021721938624978065,-0.999281108379364
1724367847.593856,77,1724367847,593709429,world,0.15738295018672943,0.8619719743728638,0.005730231758207083,0.01772979460656643,-0.008189909160137177,-0.022703615948557854,-0.99955153465271
1724367847.6038888,78,1724367847,603700288,world,0.15739233791828156,0.8619685173034668,0.0057241711765527725,0.01799793355166912,-0.007983261719346046,-0.022811971604824066,-0.9995459914207458
1724367847.613932,79,1724367847,613740241,world,0.1573866903781891,0.8619664907455444,0.005731730256229639,0.017700983211398125,-0.008085126988589764,-0.022630369290709496,-0.9995545744895935
1724367847.6238027,80,1724367847,623681157,world,0.15731211006641388,0.8620293736457825,0.005771155469119549,0.01815858669579029,-0.00777902128174901,-0.022851785644888878,-0.9995436668395996
1724367847.6338964,81,1724367847,633703712,world,0.15737834572792053,0.8619683980941772,0.0057120975106954575,0.017868785187602043,-0.008184102363884449,-0.022693397477269173,-0.9995492696762085
1724367847.633912,82,1724367847,633720776,world,0.15738649666309357,0.8619717955589294,0.005718315485864878,0.017768526449799538,-0.007865541614592075,-0.02263551577925682,-0.9995549321174622
1724367847.6439292,83,1724367847,643735613,world,0.15739354491233826,0.8619598150253296,0.005712873302400112,0.017947355285286903,-0.008118017576634884,-0.02264755591750145,-0.9995494484901428
1724367847.6539147,84,1724367847,653724133,world,0.15738153457641602,0.8619807362556458,0.005735313519835472,0.01756615750491619,-0.008318738080561161,-0.022592131048440933,-0.9995558857917786
1724367847.6638925,85,1724367847,663723704,world,0.15738631784915924,0.8619765043258667,0.005728330463171005,0.017757439985871315,-0.008197284303605556,-0.0226325411349535,-0.9995525479316711
1724367847.6739302,86,1724367847,673769274,world,0.1573864221572876,0.8619728088378906,0.005724841263145208,0.017943326383829117,-0.00822058692574501,-0.022665420547127724,-0.9995483160018921
1724367847.6838858,87,1724367847,683705256,world,0.1573837548494339,0.8619714975357056,0.005725379101932049,0.01771649904549122,-0.008039192296564579,-0.022638721391558647,-0.999554455280304
1724367847.683899,88,1724367847,683722107,world,0.1573880910873413,0.8619723320007324,0.0057285744696855545,0.017523419111967087,-0.008252779021859169,-0.022514022886753082,-0.9995588660240173
1724367847.693895,89,1724367847,693732837,world,0.1573752462863922,0.8619766235351562,0.005721640307456255,0.017983073368668556,-0.008152639493346214,-0.02258666791021824,-0.9995499849319458
1724367847.7038853,90,1724367847,703701082,world,0.15727011859416962,0.8617965579032898,0.00566557701677084,0.0190674290060997,-0.009799700230360031,-0.020817695185542107,-0.9995534420013428
1724367847.7138608,91,1724367847,713688908,world,0.1573878675699234,0.8619794249534607,0.005726928822696209,0.01766393519937992,-0.008122694678604603,-0.02258695475757122,-0.9995558261871338
1724367847.7238472,92,1724367847,723689614,world,0.1573866307735443,0.8619785308837891,0.005728129297494888,0.017792724072933197,-0.00820675678551197,-0.022616395726799965,-0.9995522499084473
1724367847.7339027,93,1724367847,733705472,world,0.15738873183727264,0.861979603767395,0.005725364666432142,0.017752457410097122,-0.008100965991616249,-0.022720180451869965,-0.9995514154434204
1724367847.7339163,94,1724367847,733722536,world,0.15733708441257477,0.8617136478424072,0.005332401022315025,0.012061619199812412,-0.010387475602328777,-0.021539319306612015,-0.9996412992477417
1724367847.7439039,95,1724367847,743708169,world,0.15738892555236816,0.8619737029075623,0.0057243360206484795,0.017904486507177353,-0.008018326945602894,-0.022724982351064682,-0.9995493292808533
1724367847.7538555,96,1724367847,753691095,world,0.15730783343315125,0.8620280027389526,0.005754391197115183,0.018035605549812317,-0.007845484651625156,-0.0228091012686491,-0.9995464086532593
1724367847.7638807,97,1724367847,763713136,world,0.15738676488399506,0.8619770407676697,0.005722139962017536,0.017620638012886047,-0.008031100034713745,-0.02272508107125759,-0.9995542168617249
1724367847.773828,98,1724367847,773686703,world,0.15737953782081604,0.8619668483734131,0.005707426927983761,0.017864184454083443,-0.008186442777514458,-0.02258608490228653,-0.9995517730712891
1724367847.783906,99,1724367847,783703459,world,0.1573828011751175,0.8619696497917175,0.005709821358323097,0.01763032004237175,-0.008290241472423077,-0.022506527602672577,-0.9995568990707397
1724367847.7839193,100,1724367847,783720450,world,0.15738415718078613,0.8619743585586548,0.005725964903831482,0.01766984909772873,-0.008010824210941792,-0.022756559774279594,-0.999552845954895
1724367847.7938688,101,1724367847,793704292,world,0.15738487243652344,0.8619762659072876,0.00572630250826478,0.017592189833521843,-0.008172684349119663,-0.022608395665884018,-0.9995562434196472
1724367847.8038805,102,1724367847,803698911,world,0.1573379933834076,0.861723780632019,0.005351576022803783,0.011763704009354115,-0.010316414758563042,-0.021436195820569992,-0.9996477961540222
1724367847.813918,103,1724367847,813726235,world,0.1573377251625061,0.8616218566894531,0.005286896135658026,0.02941199205815792,-0.010566260665655136,-0.021920809522271156,-0.9992712140083313
1724367847.8238657,104,1724367847,823690051,world,0.15737615525722504,0.8619771599769592,0.0057273143902421,0.017821965739130974,-0.008106223307549953,-0.022688914090394974,-0.9995509386062622
1724367847.8338914,105,1724367847,833708627,world,0.15738385915756226,0.8619802594184875,0.005734711419790983,0.01773924194276333,-0.00806165486574173,-0.022731667384505272,-0.9995517134666443
1724367847.8339043,106,1724367847,833726391,world,0.15738782286643982,0.8619776368141174,0.005726109258830547,0.01782160811126232,-0.00831534806638956,-0.02251497469842434,-0.9995530843734741
1724367847.8538997,107,1724367847,853723742,world,0.15738795697689056,0.8619717359542847,0.005717526655644178,0.0178989190608263,-0.008180418983101845,-0.02257755771279335,-0.9995514154434204
1724367847.85391,108,1724367847,853741867,world,0.15737852454185486,0.8619733452796936,0.005733130499720573,0.017591655254364014,-0.008085758425295353,-0.02261381596326828,-0.999556839466095
1724367847.8638349,109,1724367847,863695810,world,0.1573830395936966,0.8619713187217712,0.00573846185579896,0.017545340582728386,-0.008295757696032524,-0.022496789693832397,-0.9995585680007935
1724367847.8738968,110,1724367847,873718355,world,0.1573869287967682,0.8619783520698547,0.005727988202124834,0.017714696004986763,-0.008090820163488388,-0.02277192659676075,-0.9995510578155518
1724367847.8838751,111,1724367847,883696632,world,0.1573948860168457,0.8619765043258667,0.005715640261769295,0.017976587638258934,-0.008079399354755878,-0.022723793983459473,-0.99954754114151
1724367847.8838863,112,1724367847,883711119,world,0.15737707912921906,0.8619773983955383,0.005727285519242287,0.017739420756697655,-0.00823434628546238,-0.02268177457153797,-0.9995514750480652
1724367847.8938456,113,1724367847,893725981,world,0.1573834866285324,0.8619747757911682,0.0057269735261797905,0.017697105184197426,-0.008094660006463528,-0.02267804741859436,-0.9995535016059875
1724367847.903892,114,1724367847,903717883,world,0.15737976133823395,0.8619820475578308,0.005720583721995354,0.017978275194764137,-0.008336888626217842,-0.0226754043251276,-0.9995465278625488
1724367847.9138455,115,1724367847,913673553,world,0.15727539360523224,0.8617907166481018,0.005674250423908234,0.01904812455177307,-0.009674835950136185,-0.02078852616250515,-0.9995556473731995
1724367847.9238105,116,1724367847,923664358,world,0.15737618505954742,0.8619741201400757,0.00571627588942647,0.017751917243003845,-0.007903197780251503,-0.02267531305551529,-0.9995540976524353
1724367847.933839,117,1724367847,933693814,world,0.15738248825073242,0.8619838953018188,0.005734894424676895,0.017636366188526154,-0.008023769594728947,-0.022603264078497887,-0.9995567798614502
1724367847.9338577,118,1724367847,933707135,world,0.15733802318572998,0.8616340160369873,0.00529364263638854,0.029528748244047165,-0.010815439745783806,-0.02188105136156082,-0.9992659091949463
1724367847.943821,119,1724367847,943676279,world,0.15719634294509888,0.8618640899658203,0.005694772116839886,0.019320419058203697,-0.009251068346202374,-0.021215926855802536,-0.9995453953742981
1724367847.9538531,120,1724367847,953708559,world,0.15737685561180115,0.8619781732559204,0.0057111140340566635,0.017740309238433838,-0.008215065114200115,-0.022639308124780655,-0.9995526075363159
1724367847.9638531,121,1724367847,963693632,world,0.1573861539363861,0.861982524394989,0.00572038721293211,0.017623234540224075,-0.008201921358704567,-0.022597378119826317,-0.9995557069778442
1724367847.9738307,122,1724367847,973693946,world,0.15738610923290253,0.861981213092804,0.0057139042764902115,0.01768328808248043,-0.008254713378846645,-0.022624267265200615,-0.9995535612106323
1724367847.983916,123,1724367847,983720299,world,0.15732839703559875,0.8617210388183594,0.0053445990197360516,0.012088770978152752,-0.010278965346515179,-0.021364804357290268,-0.9996458292007446
1724367847.9839258,124,1724367847,983734841,world,0.1572730988264084,0.8617974519729614,0.005688576027750969,0.019064974039793015,-0.009795090183615685,-0.020734723657369614,-0.999555230140686
1724367847.9938405,125,1724367847,993692418,world,0.1573900729417801,0.8619797825813293,0.005734086036682129,0.017758384346961975,-0.008183212950825691,-0.022600827738642693,-0.9995534420013428
1724367848.0038548,126,1724367848,3689590,world,0.1573827713727951,0.8619845509529114,0.0057153645902872086,0.017657605931162834,-0.008134273812174797,-0.022594042122364044,-0.999555766582489
1724367848.013816,127,1724367848,13666520,world,0.15737585723400116,0.8619710803031921,0.0057152858935296535,0.018005194142460823,-0.008223283104598522,-0.022736435756087303,-0.9995455741882324
1724367848.0238004,128,1724367848,23688125,world,0.157390296459198,0.8619834780693054,0.005719271022826433,0.017762187868356705,-0.008039274252951145,-0.022769423201680183,-0.9995507001876831
1724367848.0338948,129,1724367848,33716010,world,0.15738539397716522,0.8619838953018188,0.0057329582050442696,0.017562609165906906,-0.00809933990240097,-0.022660838440060616,-0.9995561242103577
1724367848.0339043,130,1724367848,33728512,world,0.1573408842086792,0.8616326451301575,0.005314023233950138,0.028958642855286598,-0.010814741253852844,-0.021581001579761505,-0.9992892146110535
1724367848.044171,131,1724367848,43801225,world,0.15727359056472778,0.8617944121360779,0.005682305432856083,0.01907322369515896,-0.00977322831749916,-0.020720578730106354,-0.9995555877685547
1724367848.054037,132,1724367848,53762163,world,0.15737952291965485,0.8619784712791443,0.005719140637665987,0.017971007153391838,-0.00800609216094017,-0.02270316146314144,-0.9995486736297607
1724367848.0641158,133,1724367848,63764861,world,0.1573837399482727,0.8619712591171265,0.005727994255721569,0.01760639064013958,-0.008156388066709042,-0.022561991587281227,-0.9995571374893188
1724367848.0740678,134,1724367848,73786417,world,0.15738292038440704,0.8619759678840637,0.005730076692998409,0.017467942088842392,-0.007948695681989193,-0.022687217220664024,-0.9995583891868591
1724367848.0839543,135,1724367848,83751839,world,0.15727545320987701,0.8617878556251526,0.0056774732656776905,0.019144942983984947,-0.00996125116944313,-0.02072226256132126,-0.999552309513092
1724367848.083974,136,1724367848,83775947,world,0.15738040208816528,0.8619675636291504,0.005710273515433073,0.01792488992214203,-0.00811301451176405,-0.022831616923213005,-0.999545693397522
1724367848.0939505,137,1724367848,93739796,world,0.1573762148618698,0.8619803190231323,0.005732192192226648,0.017781389877200127,-0.008095751516520977,-0.022762294858694077,-0.9995500445365906
1724367848.1038833,138,1724367848,103706883,world,0.15738573670387268,0.8619678020477295,0.005723959766328335,0.017902757972478867,-0.008104453794658184,-0.022722410038113594,-0.9995487332344055
1724367848.113874,139,1724367848,113710753,world,0.15738113224506378,0.8619791865348816,0.005717067047953606,0.017836276441812515,-0.008002442307770252,-0.02274385653436184,-0.9995502829551697
1724367848.123861,140,1724367848,123695078,world,0.15737952291965485,0.8619627952575684,0.0057143899612128735,0.017952950671315193,-0.008107831701636314,-0.022676097229123116,-0.9995487928390503
1724367848.1338723,141,1724367848,133696877,world,0.15738871693611145,0.8619766235351562,0.005740674212574959,0.01753917708992958,-0.008106647059321404,-0.022739440202713013,-0.9995547533035278
1724367848.1338842,142,1724367848,133711864,world,0.1573459655046463,0.8616260290145874,0.005318882409483194,0.02909705601632595,-0.01071243081241846,-0.021712254732847214,-0.9992833137512207
1724367848.1438825,143,1724367848,143724148,world,0.15727433562278748,0.8617884516716003,0.005671419203281403,0.019225992262363434,-0.009767072275280952,-0.020823808386921883,-0.9995505809783936
1724367848.1538465,144,1724367848,153713168,world,0.15727490186691284,0.8617908358573914,0.005681431386619806,0.019163480028510094,-0.009785382077097893,-0.020926956087350845,-0.9995494484901428
1724367848.1638358,145,1724367848,163685088,world,0.1572418510913849,0.8615159392356873,0.005295427981764078,0.02947194315493107,-0.010752871632575989,-0.02062433585524559,-0.9992950558662415
1724367848.1738968,146,1724367848,173719014,world,0.15738308429718018,0.8619714975357056,0.005713498219847679,0.017508316785097122,-0.00812683254480362,-0.02258610911667347,-0.9995585680007935
1724367848.1838968,147,1724367848,183733396,world,0.15737459063529968,0.8619787096977234,0.0057142991572618484,0.01793719455599785,-0.007978239096701145,-0.02272467501461506,-0.9995490908622742
1724367848.1839025,148,1724367848,183745742,world,0.1573888212442398,0.8619746565818787,0.0057098278775811195,0.01787462830543518,-0.008191283792257309,-0.022760866209864616,-0.9995476603507996
1724367848.1938558,149,1724367848,193706418,world,0.15738610923290253,0.8619767427444458,0.005720322951674461,0.017497263848781586,-0.008184799924492836,-0.02252120152115822,-0.9995598196983337
1724367848.2037969,150,1724367848,203686806,world,0.15738263726234436,0.8619691729545593,0.0057199434377253056,0.017470266669988632,-0.008174130693078041,-0.022593721747398376,-0.9995587468147278
1724367848.2138143,151,1724367848,213671755,world,0.15738293528556824,0.8619686365127563,0.005714223720133305,0.017688093706965446,-0.008279798552393913,-0.02251206710934639,-0.9995558857917786
1724367848.2237797,152,1724367848,223640628,world,0.15719659626483917,0.8618606328964233,0.005707410164177418,0.019151529297232628,-0.009150226600468159,-0.021178390830755234,-0.999550461769104
1724367848.2338388,153,1724367848,233694043,world,0.15738250315189362,0.8619750738143921,0.005718536209315062,0.01785692386329174,-0.008196882903575897,-0.02275088243186474,-0.9995481371879578
1724367848.2338448,154,1724367848,233706159,world,0.1573781669139862,0.8619694113731384,0.005713696591556072,0.01746024563908577,-0.008178580552339554,-0.022653888911008835,-0.9995574355125427
1724367848.2439113,155,1724367848,243722594,world,0.1573849469423294,0.8619751334190369,0.005715368315577507,0.017904752865433693,-0.007907805033028126,-0.02276240475475788,-0.9995492696762085
1724367848.253871,156,1724367848,253687872,world,0.1573059856891632,0.8614487051963806,0.004937308374792337,0.02229226939380169,-0.010862129740417004,-0.02154269628226757,-0.9994603395462036
1724367848.2638812,157,1724367848,263696447,world,0.15738016366958618,0.8619751930236816,0.005712913349270821,0.017867088317871094,-0.008320700377225876,-0.02274600975215435,-0.9995470643043518
1724367848.2738647,158,1724367848,273696137,world,0.15738077461719513,0.8619791865348816,0.00571969011798501,0.017959320917725563,-0.008178886957466602,-0.022809145972132683,-0.9995450973510742
1724367848.2838933,159,1724367848,283723160,world,0.15737195312976837,0.8619711995124817,0.005716246552765369,0.01756536215543747,-0.008171038702130318,-0.02267041802406311,-0.9995553493499756
1724367848.2838998,160,1724367848,283736614,world,0.15728071331977844,0.8617944717407227,0.0056771463714540005,0.019128447398543358,-0.00987362489104271,-0.02080085501074791,-0.9995519518852234
1724367848.29387,161,1724367848,293698110,world,0.15726859867572784,0.861797034740448,0.005686734337359667,0.019056394696235657,-0.009720745496451855,-0.02068345807492733,-0.9995572566986084
1724367848.303874,162,1724367848,303711377,world,0.15730488300323486,0.8620240092277527,0.0057670664973556995,0.01812521182000637,-0.007887895219027996,-0.02289317175745964,-0.9995425343513489
1724367848.313844,163,1724367848,313678938,world,0.1571863442659378,0.8618527054786682,0.005728074349462986,0.019093267619609833,-0.009376030415296555,-0.021281486377120018,-0.9995472431182861
1724367848.3238204,164,1724367848,323675350,world,0.15727193653583527,0.8617942929267883,0.005674907937645912,0.019000472500920296,-0.009709334000945091,-0.020845239982008934,-0.9995550513267517
1724367848.3338537,165,1724367848,333697880,world,0.15718629956245422,0.8618571162223816,0.00571830477565527,0.019143057987093925,-0.009265705943107605,-0.02128765918314457,-0.9995471835136414
1724367848.3338597,166,1724367848,333712436,world,0.15737517178058624,0.8619750738143921,0.005727321375161409,0.017517603933811188,-0.008075639605522156,-0.02252616547048092,-0.9995602369308472
1724367848.343875,167,1724367848,343703818,world,0.1573299616575241,0.8616266846656799,0.005305309779942036,0.029443060979247093,-0.010659675113856792,-0.021818438544869423,-0.9992715120315552
1724367848.3538685,168,1724367848,353698782,world,0.15719293057918549,0.8618560433387756,0.005717590916901827,0.018980499356985092,-0.009144514799118042,-0.021370045840740204,-0.9995496273040771
1724367848.3638487,169,1724367848,363677642,world,0.15727165341377258,0.8617876172065735,0.005678269080817699,0.019108572974801064,-0.009787227027118206,-0.020767636597156525,-0.9995538592338562
1724367848.3739355,170,1724367848,373763482,world,0.15715745091438293,0.8615884184837341,0.005337092559784651,0.0296009611338377,-0.009706051088869572,-0.02139071375131607,-0.9992858171463013
1724367848.383846,171,1724367848,383683971,world,0.15738457441329956,0.8619673252105713,0.0057238065637648106,0.017562896013259888,-0.008055639453232288,-0.02258608490228653,-0.9995582699775696
1724367848.383858,172,1724367848,383695405,world,0.15727218985557556,0.8617902994155884,0.005672784522175789,0.019131621345877647,-0.009971005842089653,-0.020781559869647026,-0.9995512962341309
1724367848.3938575,173,1724367848,393694960,world,0.15719567239284515,0.8618489503860474,0.005719221197068691,0.019026068970561028,-0.009295578114688396,-0.021254846826195717,-0.9995498061180115
1724367848.4038427,174,1724367848,403682046,world,0.15738151967525482,0.8619743585586548,0.005735510960221291,0.01769367977976799,-0.008128229528665543,-0.02277771569788456,-0.9995509386062622
1724367848.41385,175,1724367848,413689066,world,0.15738210082054138,0.8619689345359802,0.005744109861552715,0.017580796033143997,-0.00811871886253357,-0.022628607228398323,-0.9995564222335815
1724367848.4238539,176,1724367848,423692858,world,0.15738420188426971,0.8619745373725891,0.0057233963161706924,0.0177189689129591,-0.008036835119128227,-0.022638961672782898,-0.9995543956756592
1724367848.4338427,177,1724367848,433692683,world,0.15727461874485016,0.8617908358573914,0.0056761824525892735,0.018893133848905563,-0.009680744260549545,-0.020760923624038696,-0.9995591044425964
1724367848.433853,178,1724367848,433706633,world,0.15738266706466675,0.8619758486747742,0.005728390533477068,0.017590878531336784,-0.007955032400786877,-0.022671572864055634,-0.9995565414428711
1724367848.4438272,179,1724367848,443682539,world,0.15734398365020752,0.8616262078285217,0.005303787067532539,0.029051771387457848,-0.010957274585962296,-0.021649207919836044,-0.9992834329605103
1724367848.4539046,180,1724367848,453726149,world,0.15730538964271545,0.8614435791969299,0.004944569896906614,0.022360527887940407,-0.010612113401293755,-0.02158302441239357,-0.9994606375694275
1724367848.4639037,181,1724367848,463715411,world,0.15738427639007568,0.8619764447212219,0.005702222231775522,0.01794709637761116,-0.00783199816942215,-0.022797828540205956,-0.9995483756065369
1724367848.4738913,182,1724367848,473711447,world,0.15727810561656952,0.861790657043457,0.005677488632500172,0.01911916583776474,-0.009830974973738194,-0.02076936513185501,-0.9995531439781189
1724367848.4838576,183,1724367848,483713322,world,0.1573885828256607,0.8619822859764099,0.0057356092147529125,0.01761925406754017,-0.008005443029105663,-0.022695640102028847,-0.9995551109313965
1724367848.4838796,184,1724367848,483729836,world,0.15730799734592438,0.8620259761810303,0.005740150343626738,0.0182258952409029,-0.008013216778635979,-0.022809648886322975,-0.9995416402816772
1724367848.4939072,185,1724367848,493733405,world,0.15726998448371887,0.8617892265319824,0.005662419833242893,0.019134946167469025,-0.009718687273561954,-0.020779848098754883,-0.9995537996292114
1724367848.503793,186,1724367848,503654262,world,0.15738235414028168,0.8619717955589294,0.005705853458493948,0.017664412036538124,-0.008211753331124783,-0.022647898644208908,-0.9995537996292114
1724367848.5138676,187,1724367848,513721081,world,0.1573781669139862,0.8619763851165771,0.005727860610932112,0.017726516351103783,-0.008069973438978195,-0.022694449871778488,-0.9995527267456055
1724367848.5238898,188,1724367848,523705298,world,0.15730760991573334,0.8620277047157288,0.005759352818131447,0.01789853163063526,-0.007975369691848755,-0.02281251735985279,-0.9995477795600891
1724367848.5338383,189,1724367848,533668541,world,0.15734390914440155,0.8616215586662292,0.0053068348206579685,0.02904829941689968,-0.010612066835165024,-0.021709483116865158,-0.9992859363555908
1724367848.5338492,190,1724367848,533682513,world,0.157382532954216,0.86196368932724,0.005708500277251005,0.017758065834641457,-0.008177257142961025,-0.02266322448849678,-0.9995520710945129
1724367848.5438845,191,1724367848,543702863,world,0.1573430895805359,0.8617219924926758,0.005348098464310169,0.01188312191516161,-0.010516328737139702,-0.021495165303349495,-0.999643087387085
1724367848.5538754,192,1724367848,553715029,world,0.157302588224411,0.8620219826698303,0.005748779978603125,0.01799350045621395,-0.007971636950969696,-0.022767797112464905,-0.9995471239089966
1724367848.563901,193,1724367848,563704088,world,0.15738742053508759,0.8619703054428101,0.005715114064514637,0.01775192655622959,-0.008061078377068043,-0.02266358584165573,-0.9995530247688293
1724367848.5738175,194,1724367848,573693734,world,0.15727141499519348,0.8617963194847107,0.005683212075382471,0.01902374066412449,-0.009632826782763004,-0.02072892338037491,-0.9995577335357666
1724367848.5839128,195,1724367848,583706999,world,0.15737897157669067,0.8619681596755981,0.005734031554311514,0.017772842198610306,-0.008096389472484589,-0.02281910926103592,-0.9995488524436951
1724367848.5839262,196,1724367848,583725414,world,0.1573808342218399,0.861970841884613,0.00573873333632946,0.017631061375141144,-0.00812563020735979,-0.022693311795592308,-0.9995539784431458
1724367848.5939362,197,1724367848,593759506,world,0.15727336704730988,0.8617904782295227,0.00568430544808507,0.019220175221562386,-0.009734327904880047,-0.020852698013186455,-0.999550461769104
1724367848.6039112,198,1724367848,603722066,world,0.15727123618125916,0.8617892265319824,0.005681326147168875,0.0191656444221735,-0.009867120534181595,-0.020835254341363907,-0.9995505213737488
1724367848.613929,199,1724367848,613730234,world,0.15738540887832642,0.8619846701622009,0.005737806670367718,0.017643623054027557,-0.00816244538873434,-0.022671852260828018,-0.999553918838501
1724367848.623844,200,1724367848,623669364,world,0.15730829536914825,0.862018883228302,0.005757215898483992,0.018237505108118057,-0.007993781007826328,-0.02292400225996971,-0.9995389580726624
1724367848.6339116,201,1724367848,633728927,world,0.15728068351745605,0.8617974519729614,0.005681802984327078,0.01905718259513378,-0.009918317198753357,-0.020684920251369476,-0.999555230140686
1724367848.6339183,202,1724367848,633746386,world,0.1573835015296936,0.8619661927223206,0.005705188028514385,0.017883820459246635,-0.008108982816338539,-0.022629180923104286,-0.9995511770248413
1724367848.6438982,203,1724367848,643710358,world,0.15737983584403992,0.86197829246521,0.0057257539592683315,0.017577631399035454,-0.00826353207230568,-0.02261563390493393,-0.9995555877685547
1724367848.6538906,204,1724367848,653716816,world,0.1573830246925354,0.8619826436042786,0.005723251961171627,0.01762589067220688,-0.007979284040629864,-0.022700311616063118,-0.9995551705360413
1724367848.6638498,205,1724367848,663703703,world,0.15730799734592438,0.8620235919952393,0.00575950788334012,0.018153682351112366,-0.008046665228903294,-0.022832127287983894,-0.9995420575141907
1724367848.6738403,206,1724367848,673688815,world,0.1573810577392578,0.8619672656059265,0.005710668861865997,0.017748132348060608,-0.008134735748171806,-0.022666875272989273,-0.9995524883270264
1724367848.6839206,207,1724367848,683717522,world,0.15738080441951752,0.8619723320007324,0.005715482868254185,0.017976338043808937,-0.008381628431379795,-0.022657036781311035,-0.9995465278625488
1724367848.6839287,208,1724367848,683733870,world,0.1573847532272339,0.8619741797447205,0.005727391690015793,0.01749056577682495,-0.008157857693731785,-0.022636275738477707,-0.9995574951171875
1724367848.6938238,209,1724367848,693683968,world,0.157309889793396,0.8620262145996094,0.0057495469227433205,0.018079126253724098,-0.007966512814164162,-0.022811220958828926,-0.9995445609092712
1724367848.7038703,210,1724367848,703711087,world,0.1573423594236374,0.8617206811904907,0.005332338158041239,0.012060832232236862,-0.010076827369630337,-0.02145446464419365,-0.9996463656425476
1724367848.7138546,211,1724367848,713702470,world,0.15730689465999603,0.8620244860649109,0.005728035233914852,0.01832379400730133,-0.007980507798492908,-0.02283613756299019,-0.9995394945144653
1724367848.7838576,212,1724367848,783715758,world,0.15731507539749146,0.8620295524597168,0.005759768653661013,0.017891809344291687,-0.007985832169651985,-0.022753126919269562,-0.999549150466919
1724367848.783864,214,1724367848,783736278,world,0.15739594399929047,0.8619607090950012,0.005701404996216297,0.017540527507662773,-0.008217556402087212,-0.022585174068808556,-0.9995573163032532
1724367848.7938573,215,1724367848,793697403,world,0.15738441050052643,0.8619754910469055,0.005696232430636883,0.01774890162050724,-0.00811027828603983,-0.022699005901813507,-0.9995519518852234
1724367848.7938638,221,1724367848,793739192,world,0.15733183920383453,0.8616265058517456,0.00529394019395113,0.029514623805880547,-0.010657032951712608,-0.02186685800552368,-0.9992684125900269
1724367848.8038764,222,1724367848,803713467,world,0.15719498693943024,0.861858606338501,0.005710845347493887,0.019115127623081207,-0.009349104017019272,-0.021312536671757698,-0.999546468257904
1724367848.813865,223,1724367848,813694894,world,0.1572740375995636,0.8617961406707764,0.00567482179030776,0.019156865775585175,-0.009451279416680336,-0.02076367847621441,-0.9995562434196472
1724367848.8238087,224,1724367848,823672778,world,0.15738549828529358,0.8619807958602905,0.005742112640291452,0.017860766500234604,-0.00830287765711546,-0.022683817893266678,-0.9995487332344055
1724367848.833828,225,1724367848,833693678,world,0.15738379955291748,0.8619845509529114,0.005733655299991369,0.017497031018137932,-0.008136150427162647,-0.02277609147131443,-0.9995543956756592
1724367848.8338406,226,1724367848,833709440,world,0.15726640820503235,0.86179119348526,0.005674677900969982,0.019068406894803047,-0.009807220660150051,-0.02079753391444683,-0.9995537400245667
1724367848.8438704,227,1724367848,843697150,world,0.15726451575756073,0.8617932200431824,0.0056756846606731415,0.019254406914114952,-0.009732633829116821,-0.020810827612876892,-0.9995507001876831
1724367848.8538659,228,1724367848,853715059,world,0.15738017857074738,0.8619796633720398,0.005728414282202721,0.017492035403847694,-0.00840075220912695,-0.02258680947124958,-0.9995566010475159
1724367848.863823,229,1724367848,863653136,world,0.15737862884998322,0.861984133720398,0.0057364110834896564,0.017782004550099373,-0.00827291514724493,-0.02273361012339592,-0.9995492696762085
1724367848.8739045,230,1724367848,873734937,world,0.15726861357688904,0.8617908954620361,0.005674421787261963,0.018983831629157066,-0.009696302004158497,-0.02084767445921898,-0.9995554089546204
1724367848.8839178,231,1724367848,883731202,world,0.15719112753868103,0.8618510365486145,0.005702957510948181,0.01928609050810337,-0.009081031195819378,-0.021331103518605232,-0.9995452165603638
1724367848.8839283,232,1724367848,883746067,world,0.1573888212442398,0.8619832396507263,0.0057327961549162865,0.017784910276532173,-0.008204053156077862,-0.022749364376068115,-0.9995493292808533
1724367848.893897,233,1724367848,893723352,world,0.15738053619861603,0.8619716763496399,0.005740495398640633,0.01738382689654827,-0.008022774010896683,-0.0226586926728487,-0.9995599389076233
1724367848.9038377,234,1724367848,903676350,world,0.15726803243160248,0.8617867231369019,0.00567319942638278,0.01914568990468979,-0.00974572915583849,-0.02080792374908924,-0.9995526671409607
1724367848.9138665,235,1724367848,913699102,world,0.15737830102443695,0.8619645237922668,0.005707160569727421,0.018067874014377594,-0.008217612281441689,-0.022700827568769455,-0.9995452761650085
1724367848.9238703,236,1724367848,923714154,world,0.15730451047420502,0.862022876739502,0.005760653410106897,0.017977671697735786,-0.00804878305643797,-0.022790290415287018,-0.999546229839325
1724367848.9338036,237,1724367848,933672398,world,0.15737855434417725,0.8619818687438965,0.005745875649154186,0.01755034364759922,-0.008247477933764458,-0.022599458694458008,-0.9995566010475159
1724367848.933814,238,1724367848,933687676,world,0.15738676488399506,0.8619741797447205,0.005725179333239794,0.017628459259867668,-0.008159312419593334,-0.022608082741498947,-0.999555766582489
1724367848.9438224,239,1724367848,943689803,world,0.15738870203495026,0.8619619607925415,0.005688969045877457,0.018110882490873337,-0.008019670844078064,-0.02277924120426178,-0.9995443820953369
1724367848.9538674,240,1724367848,953719823,world,0.15738248825073242,0.8619762063026428,0.005714156199246645,0.017818564549088478,-0.007914035581052303,-0.02281292900443077,-0.9995496273040771
1724367848.963879,241,1724367848,963699172,world,0.15730638802051544,0.8620396852493286,0.005787228234112263,0.017891598865389824,-0.008018129505217075,-0.022654643282294273,-0.9995511174201965
1724367848.973861,242,1724367848,973695557,world,0.15738509595394135,0.8619832992553711,0.005722505040466785,0.017896100878715515,-0.008014621213078499,-0.022898441180586815,-0.9995455145835876
1724367848.9838612,243,1724367848,983705904,world,0.15733705461025238,0.8617174029350281,0.005339806899428368,0.012048091739416122,-0.010304066352546215,-0.021536612883210182,-0.9996423721313477
1724367848.9838684,244,1724367848,983722230,world,0.15727144479751587,0.861797034740448,0.00568024767562747,0.01899648830294609,-0.009892423637211323,-0.020812902599573135,-0.9995539784431458
1724367848.9938445,245,1724367848,993719169,world,0.1573103368282318,0.8620253205299377,0.005760859232395887,0.017788901925086975,-0.008152673952281475,-0.02258913777768612,-0.999553382396698
1724367849.0038745,246,1724367849,3699351,world,0.15737926959991455,0.8619734644889832,0.005716698709875345,0.017568785697221756,-0.008131254464387894,-0.022662604227662086,-0.999555766582489
1724367849.0138853,247,1724367849,13712271,world,0.15735110640525818,0.8616278171539307,0.00529520632699132,0.02891220711171627,-0.01044120080769062,-0.02171662636101246,-0.9992914795875549
1724367849.023814,248,1724367849,23674409,world,0.15730084478855133,0.862008810043335,0.0057335514575243,0.018155785277485847,-0.007841349579393864,-0.022809365764260292,-0.9995442032814026
1724367849.0339313,249,1724367849,33704990,world,0.1573939025402069,0.8619730472564697,0.005737640894949436,0.0175754576921463,-0.008029838092625141,-0.022629503160715103,-0.9995572566986084
1724367849.0339398,250,1724367849,33715928,world,0.15737439692020416,0.8619707226753235,0.005729588679969311,0.01757449470460415,-0.008115238510072231,-0.02264346554875374,-0.9995562434196472
1724367849.043809,251,1724367849,43668169,world,0.15738123655319214,0.8619685769081116,0.005705410614609718,0.01784038357436657,-0.00818941555917263,-0.02260781265795231,-0.9995517134666443
1724367849.0538347,252,1724367849,53721934,world,0.1573764532804489,0.8619709014892578,0.005715173203498125,0.017798449844121933,-0.00834309309720993,-0.02261199802160263,-0.9995510578155518
1724367849.0638127,253,1724367849,63674278,world,0.1573430597782135,0.8616243004798889,0.005310253240168095,0.02914043515920639,-0.01077044103294611,-0.02168360725045204,-0.9992820620536804
1724367849.0738745,254,1724367849,73702246,world,0.15734165906906128,0.8616250157356262,0.005317735020071268,0.02919449470937252,-0.01079606730490923,-0.02166365087032318,-0.9992806911468506
1724367849.0838609,255,1724367849,83689998,world,0.1572718769311905,0.8617884516716003,0.005665363743901253,0.019236186519265175,-0.009686041623353958,-0.020798614248633385,-0.9995517134666443
1724367849.0838704,256,1724367849,83701721,world,0.15737591683864594,0.8619746565818787,0.005721486639231443,0.017736006528139114,-0.008050437085330486,-0.02271694876253605,-0.9995521903038025
1724367849.0938454,257,1724367849,93704842,world,0.15731050074100494,0.8620323538780212,0.005764619447290897,0.01788477599620819,-0.007817157544195652,-0.022795148193836212,-0.9995496273040771
1724367849.1038244,258,1724367849,103687769,world,0.15738354623317719,0.8619753122329712,0.00574422487989068,0.017809081822633743,-0.00795596744865179,-0.022742802277207375,-0.9995511174201965
1724367849.113892,259,1724367849,113721350,world,0.1573856770992279,0.8619682192802429,0.0057167839258909225,0.017882611602544785,-0.007955117151141167,-0.022762631997466087,-0.999549388885498
1724367849.1238647,260,1724367849,123687740,world,0.15727540850639343,0.8617937564849854,0.005684233270585537,0.019093982875347137,-0.009652744047343731,-0.020866459235548973,-0.999553382396698
1724367849.1338089,261,1724367849,133666326,world,0.1573471575975418,0.8616219758987427,0.00531757390126586,0.02916141413152218,-0.010821694508194923,-0.021657181903719902,-0.9992814660072327
1724367849.133814,262,1724367849,133682084,world,0.1573813557624817,0.861981213092804,0.005740960594266653,0.017504874616861343,-0.008089917711913586,-0.022647542878985405,-0.999557614326477
1724367849.1438284,263,1724367849,143685547,world,0.1573871374130249,0.861964225769043,0.005716877523809671,0.017970778048038483,-0.008008028380572796,-0.0226424690335989,-0.9995500445365906
1724367849.1538887,264,1724367849,153719049,world,0.15733882784843445,0.8617172837257385,0.005355367437005043,0.0120602548122406,-0.010385365225374699,-0.021448303014039993,-0.9996432662010193
1724367849.1638587,265,1724367849,163708760,world,0.15738703310489655,0.8619778156280518,0.005744669120758772,0.017519600689411163,-0.00820771511644125,-0.022617455571889877,-0.9995570778846741
1724367849.1738408,266,1724367849,173712231,world,0.15730376541614532,0.8620217442512512,0.005766652524471283,0.01787373423576355,-0.00799819640815258,-0.02270742692053318,-0.9995504021644592
1724367849.1838288,267,1724367849,183699936,world,0.1573839783668518,0.861968457698822,0.005708866752684116,0.017902204766869545,-0.008115330711007118,-0.022677715867757797,-0.9995496869087219
1724367849.1838431,268,1724367849,183714576,world,0.15727569162845612,0.8617869019508362,0.005669052712619305,0.019138382747769356,-0.009784081019461155,-0.02073379047214985,-0.9995539784431458
1724367849.1938396,269,1724367849,193676277,world,0.15731339156627655,0.862034022808075,0.005771175492554903,0.01798349805176258,-0.007913539186120033,-0.02274418994784355,-0.9995483160018921
1724367849.2037911,270,1724367849,203658514,world,0.1573895961046219,0.8619739413261414,0.005733815487474203,0.017742931842803955,-0.008135114796459675,-0.022628899663686752,-0.9995534420013428
1724367849.2138226,271,1724367849,213690330,world,0.15738309919834137,0.8619628548622131,0.00571188610047102,0.017993927001953125,-0.008091548457741737,-0.02270870842039585,-0.9995474219322205
1724367849.2238357,272,1724367849,223661141,world,0.15737684071063995,0.8619697093963623,0.0057002282701432705,0.017838504165410995,-0.008184488862752914,-0.022687692195177078,-0.9995499849319458
1724367849.2339122,273,1724367849,233749296,world,0.15738867223262787,0.8619734048843384,0.005727794021368027,0.017723485827445984,-0.008222625590860844,-0.022390656173229218,-0.9995583891868591
1724367849.2438197,274,1724367849,243687939,world,0.15737538039684296,0.8619877099990845,0.0057411943562328815,0.017746824771165848,-0.008034135214984417,-0.022767260670661926,-0.9995510578155518
1724367849.2438304,275,1724367849,243699815,world,0.15738731622695923,0.8619667291641235,0.005702412221580744,0.01784793846309185,-0.008082788437604904,-0.022527208551764488,-0.9995542764663696
1724367849.2538738,276,1724367849,253695885,world,0.15737012028694153,0.8619645833969116,0.00569939287379384,0.017914045602083206,-0.008056765422224998,-0.022715065628290176,-0.9995490312576294
1724367849.263869,277,1724367849,263693928,world,0.1573832929134369,0.8619728088378906,0.005721749737858772,0.01774890534579754,-0.008367259055376053,-0.02252356708049774,-0.9995537400245667
1724367849.2738302,278,1724367849,273711094,world,0.15738986432552338,0.861974835395813,0.00573262944817543,0.017522254958748817,-0.008317425847053528,-0.022546086460351944,-0.9995576739311218
1724367849.2838397,279,1724367849,283700987,world,0.15738248825073242,0.8619696497917175,0.005708969198167324,0.01785319298505783,-0.00802104827016592,-0.022634800523519516,-0.9995522499084473
1724367849.2838504,280,1724367849,283715143,world,0.1573759913444519,0.8619716763496399,0.005716918967664242,0.01786358468234539,-0.008031426928937435,-0.022599179297685623,-0.9995527863502502
1724367849.2938435,281,1724367849,293694094,world,0.15729835629463196,0.8614462614059448,0.0049608247354626656,0.022350994870066643,-0.010841090232133865,-0.021483149379491806,-0.9994605183601379
1724367849.3038585,282,1724367849,303692660,world,0.15738452970981598,0.8619723320007324,0.00572188850492239,0.01768859475851059,-0.008085357025265694,-0.02266518585383892,-0.9995539784431458
1724367849.313902,283,1724367849,313725904,world,0.15729841589927673,0.8620159029960632,0.005737781058996916,0.018213709816336632,-0.00805951189249754,-0.022772295400500298,-0.9995422959327698
1724367849.32383,284,1724367849,323696295,world,0.15726830065250397,0.8617847561836243,0.005675570573657751,0.018976163119077682,-0.009666217491030693,-0.020687775686383247,-0.9995591640472412
1724367849.33387,285,1724367849,333738485,world,0.15738597512245178,0.8619764447212219,0.0057275439612567425,0.017763881012797356,-0.008006090298295021,-0.02271694503724575,-0.9995520710945129
1724367849.3338761,286,1724367849,333751696,world,0.1573304980993271,0.8617230653762817,0.005368997808545828,0.011634054593741894,-0.010296458378434181,-0.021424032747745514,-0.9996498227119446
1724367849.343868,287,1724367849,343690497,world,0.15737411379814148,0.8619757294654846,0.005730213597416878,0.01775522157549858,-0.0082864910364151,-0.022663148120045662,-0.9995511770248413
1724367849.3538868,288,1724367849,353717626,world,0.15737566351890564,0.8619632720947266,0.005708769895136356,0.017852049320936203,-0.008095884695649147,-0.022628596052527428,-0.9995517730712891
1724367849.3638744,289,1724367849,363690885,world,0.15738138556480408,0.8619763255119324,0.005729046184569597,0.017881646752357483,-0.00827551819384098,-0.02274409309029579,-0.9995471239089966
1724367849.3738472,290,1724367849,373689708,world,0.15737693011760712,0.8619717359542847,0.005729523487389088,0.017593514174222946,-0.00824102945625782,-0.022603420540690422,-0.999555766582489
1724367849.383848,291,1724367849,383693635,world,0.157387375831604,0.8619660139083862,0.005714991129934788,0.017623158171772957,-0.007976831868290901,-0.022579750046133995,-0.9995579123497009
1724367849.38386,292,1724367849,383706583,world,0.15718811750411987,0.8618576526641846,0.0057165478356182575,0.01926744543015957,-0.009230399504303932,-0.021324673667550087,-0.9995443820953369
1724367849.3938367,293,1724367849,393679363,world,0.15738633275032043,0.8619745969772339,0.005731090437620878,0.017891520634293556,-0.00817253440618515,-0.02283787913620472,-0.9995457530021667
1724367849.4038367,294,1724367849,403664772,world,0.15738776326179504,0.861972451210022,0.00572312343865633,0.017504112794995308,-0.008205576799809933,-0.022612057626247406,-0.9995574355125427
1724367849.4139035,295,1724367849,413724031,world,0.15738371014595032,0.8619802594184875,0.005712089128792286,0.01779896207153797,-0.008011830039322376,-0.02277706190943718,-0.9995500445365906
1724367849.4238625,296,1724367849,423695213,world,0.1573081761598587,0.862014889717102,0.005741008557379246,0.01804276742041111,-0.00794101133942604,-0.022828906774520874,-0.9995450377464294
1724367849.4338868,297,1724367849,433718709,world,0.15737901628017426,0.86197429895401,0.005723715294152498,0.01790034770965576,-0.007988055236637592,-0.022767869755625725,-0.999548614025116
1724367849.4438994,298,1724367849,443688795,world,0.1573011428117752,0.8620237708091736,0.005758002866059542,0.01790028251707554,-0.00799496192485094,-0.02277221903204918,-0.9995484948158264
1724367849.4439054,299,1724367849,443699924,world,0.15730617940425873,0.8620216846466064,0.005744602531194687,0.01823938637971878,-0.007883443497121334,-0.02276195026934147,-0.9995434880256653
1724367849.453808,300,1724367849,453669490,world,0.15738873183727264,0.8619616031646729,0.005701655987650156,0.017639776691794395,-0.008142055943608284,-0.022604329511523247,-0.999555766582489
1724367849.46381,301,1724367849,463669486,world,0.15730810165405273,0.8620225787162781,0.005755535326898098,0.018279047682881355,-0.007913270965218544,-0.02284144051373005,-0.9995406866073608
1724367849.4737844,302,1724367849,473646119,world,0.15737847983837128,0.8619834184646606,0.00571837741881609,0.017880484461784363,-0.008168987929821014,-0.02277062088251114,-0.9995474815368652
1724367849.4838908,303,1724367849,483716697,world,0.15734189748764038,0.8617203831672668,0.00534624932333827,0.011843707412481308,-0.010358228348195553,-0.021333854645490646,-0.9996486902236938
1724367849.483905,304,1724367849,483731628,world,0.15731143951416016,0.862023115158081,0.005737640894949436,0.018433112651109695,-0.007977553643286228,-0.022840674966573715,-0.9995373487472534
1724367849.4938831,305,1724367849,493724207,world,0.15737846493721008,0.8619797825813293,0.005714804399758577,0.017712319269776344,-0.008041317574679852,-0.022699588909745216,-0.9995531439781189
1724367849.5038636,306,1724367849,503695386,world,0.15727120637893677,0.861710250377655,0.00536425830796361,0.02998497150838375,-0.00938150193542242,-0.022395849227905273,-0.9992554187774658
1724367849.5138283,307,1724367849,513702334,world,0.15734288096427917,0.8616253137588501,0.005292212124913931,0.028957534581422806,-0.010515138506889343,-0.021713558584451675,-0.9992895722389221
1724367849.5239065,308,1724367849,523731318,world,0.1573842316865921,0.8619760870933533,0.00571823725476861,0.017985031008720398,-0.007943875156342983,-0.02265528030693531,-0.9995500445365906
1724367849.533814,309,1724367849,533681249,world,0.15730006992816925,0.8620169162750244,0.005751150660216808,0.018162330612540245,-0.007945435121655464,-0.022803306579589844,-0.9995434284210205
1724367849.53382,310,1724367849,533692362,world,0.15737879276275635,0.8619669675827026,0.005728594958782196,0.01767520233988762,-0.008220281451940536,-0.022579045966267586,-0.9995550513267517
1724367849.5438387,311,1724367849,543687740,world,0.1573796570301056,0.8619696497917175,0.005712993908673525,0.017787836492061615,-0.008301597088575363,-0.022696083411574364,-0.9995497465133667
1724367849.5538745,312,1724367849,553722846,world,0.1573856920003891,0.8619685173034668,0.005714606028050184,0.017801029607653618,-0.007993187755346298,-0.022625291720032692,-0.9995535612106323
1724367849.5638723,313,1724367849,563716931,world,0.1573767215013504,0.8619637489318848,0.005714107770472765,0.017860082909464836,-0.008165687322616577,-0.022710807621479034,-0.9995492100715637
